~VERSION INFORMATION
VERS.           2.0   :CWLS Log ASCII Standard - VERSION 2.0
WRAP.           NO    :One Line per depth step
PROD.  Schlumberger   :LAS Producer
PROG.  DLIS to ASCII 2.3                               :LAS Program name and version
CREA.        2012/03/06 09:37                          :LAS Creation date {YYYY/MM/DD hh:mm}
DLIS_CREA.  2012-Mar-04 13:45                          :DLIS Creation date and time {YYYY-MMM-DD hh:mm}
SOURCE.     BFN8-00160_Bear_Fornstrom_44-32_Main.DLIS  :DLIS File Name
FILE-ID.     AIT_SONIC_TLD_MCFL_029PUP                 :File Identification Number
#--------------------------------------------------
~WELL INFORMATION
#MNEM.UNIT      DATA             DESCRIPTION
#---- ------ --------------   -----------------------------
STRT .F      946.5           :START DEPTH     
STOP .F      7726.5          :STOP DEPTH     
STEP .F       0.5            :STEP     
NULL .          -999.25      :NULL VALUE
COMP .        Bear Oil & Gas, Inc.                     :COMPANY
WELL .        Fornstrom 44-32                          :WELL
FLD  .        Britty                                   :FIELD
LOC  .        Sec. 32, T16N, R60W                      :LOCATION
CNTY .        Laramie                                  :COUNTY
STAT .        Wyoming                                  :STATE
CTRY .                                                 :COUNTRY
API  .        49-021-20913-0000                        :API NUMBER
UWI  .                                                 :UNIQUE WELL ID
DATE .        04-Mar-2012                              :LOG DATE {DD-MMM-YYYY}
SRVC .        Schlumberger                             :SERVICE COMPANY
LATI .DEG                                              :LATITUDE
LONG .DEG                                              :LONGITUDE
GDAT .                                                 :GeoDetic Datum
SECT .        32                                       :Section
RANG .        60W                                      :Range
TOWN .        16N                                      :Township
#-----------------------------------------------------------------------------
~PARAMETER INFORMATION
#MNEM.UNIT    VALUE                      DESCRIPTION
#---- -----   --------------------       ------------------------
CN   .        Bear Oil & Gas  Inc.       :Company Name
WN   .        Fornstrom 44-32            :Well Name
FN   .        Britty                     :Field Name
FL   .        Sec. 32  T16N  R60W        :Field Location
FL1  .        SHL  760' FSL X 757' FEL SESE :Field Location Line 1
COUN .        Laramie                    :County or Rig Name
STAT .        Wyoming                    :State or Province
NATI .                                   :Nation
DATE .        4-Mar-2012                 :Date as Month-Day-Year
APIN .        49-021-20913-0000          :API Serial Number
SECT .        32                         :Section
TOWN .        16N                        :Township
RANG .        60W                        :Range
DMF  .        Kelly Bushing              :Drilling Measured From
LMF  .        Kelly Bushing              :Log Measured From
PDAT .        Ground Level               :Permanent Datum
ENGI .        Tim Hoffman                :Engineer's Name
WITN .        Terry Eittreim             :Witness's Name
LATI .                                   :Latitude
LONG .                                   :Longitude
LUL  .        Ft. Morgan  CO             :Logging Unit Location
LUN  .              2153                 :Logging Unit Number
RUN  .        1                          :Run Number
SON  .        BFN8-00160                 :Service Order Number
BHT  .DEGF     170.00000                 :Bottom Hole Temperature (used in calculations)
BS   .IN         7.87500                 :Bit Size
MDEN .G/C3       2.65000                 :Matrix Density
DFD  .LB/G       9.20000                 :Drilling Fluid Density
DFV  .S         68.00000                 :Drilling Fluid Viscosity
DFL  .C3         5.60000                 :Drilling Fluid Loss
RMFS .OHMM       1.84875                 :Resistivity of Mud Filtrate Sample
EKB  .F       5292.00000                 :Elevation of Kelly Bushing
EGL  .F       5276.00000                 :Elevation of Ground Level
BLI  .F       7696.00000                 :Bottom Log Interval
BSAL .                                   :Borehole Salinity
FLEV .F        300.00000                 :Fluid Level
MCST .DEGF      91.00000                 :Mud Cake Sample Temperature
MFST .DEGF      91.00000                 :Mud Filtrate Sample Temperature
MRT  .DEGF     170.00000                 :Maximum Recorded Temperature
MST  .DEGF      91.00000                 :Mud Sample Temperature
RMCS .OHMM       3.69750                 :Resistivity of Mud Cake Sample
RMS  .OHMM       2.46500                 :Resistivity of Mud Sample
RW   .OHMM       1.00000                 :Resistivity of Connate Water
TDD  .F       7700.00000                 :Total Depth - Driller
TDL  .F       7704.00000                 :Total Depth - Logger
TLI  .F       1044.00000                 :Top Log Interval
HIDE .        BHC Sonic                  :Header Identifier
MATR .        SAND                       :Rock Matrix for Neutron Porosity Corrections
FNUM .           1.00000                 :Form Factor Numerator
FEXP .           2.00000                 :Form Factor Exponent
DFT  .        Gel and Chemical           :Drilling Fluid Type
DFPH .           8.50000                 :Drilling Fluid PH
MCSS .        Calculated                 :Mud Cake Sample Source
MFSS .        Calculated                 :Mud Filtrate Sample Source
FD   .G/C3       1.00000                 :Fluid Density
MSS  .        Flowline                   :Mud Sample Source
OS1  .        PEX AIT                    :Other Services Line 1
OS2  .                                   :Other Services Line 2
OS3  .                                   :Other Services Line 3
OS4  .                                   :Other Services Line 4
OS5  .                                   :Other Services Line 5
R1   .        This is the first run in hole :Remark Line 1
R2   .                                   :Remark Line 2
R3   .        Toolstring run as per tool sketch :Remark Line 3
R4   .                                   :Remark Line 4
R5   .        Matrix  Sandstone (2.65 g/cc) from TD to 7264' :Remark Line 5
R6   .                     Limestone (2.71 g/cc) from 7264' to Surface :Remark Line 6
R7   .                                   :Remark Line 7
R8   .        EDTC run for telemetry and not used for gamma ray :Remark Line 8
TCS  .        3 00                       :Time Circulation Stopped
TLAB .        11 40                      :Time Logger At Bottom
NMT  .        NOBARITE                   :HILT Nuclear Mud Type
EPD  .F         5276.000000              :Elevation of Permanent Datum above Mean Sea Level
APD  .F          16.000000               :Elevation of Depth Reference (LMF) above Permanent Datum
#-----------------------------------------------------------------------------
~CURVE INFORMATION
#MNEM.UNIT   API CODE                                  DESCRIPTION
#---- -----  --------                                  -----------------------
DEPT .F                                                :DEPTH (BOREHOLE) {F10.1}
AT10 .OHMM                                             :Array Induction Two Foot Resistivity A10 {F11.4}
AT20 .OHMM                                             :Array Induction Two Foot Resistivity A20 {F11.4}
AT30 .OHMM                                             :Array Induction Two Foot Resistivity A30 {F11.4}
AT60 .OHMM                                             :Array Induction Two Foot Resistivity A60 {F11.4}
AT90 .OHMM                                             :Array Induction Two Foot Resistivity A90 {F11.4}
DPHZ .CFCF                                             :HRDD Standard Resolution Density Porosity {F11.4}
DT   .US/F                                             :Delta-T {F11.4}
HCAL .IN                                               :HRCC Caliper Calibrated {F13.4}
GR   .GAPI                                             :Gamma-Ray {F11.4}
HCAL .IN                                               :HRCC Caliper Calibrated {F11.4}
HDRA .G/C3                                             :HRDD Density Correction {F11.4}
NPOR .CFCF                                             :Enhanced Thermal Neutron Porosity {F11.4}
PEFZ .                                                 :HRDD Standard Resolution Formation Photoelectric Factor {F11.4}
RHOZ .G/C3                                             :HRDD Standard Resolution Formation Density {F11.4}
SP   .MV                                               :SP Shifted {F11.4}
SPHI .CFCF                                             :Sonic Porosity {F11.4}
#-----------------------------------------------------------------------------
# 
#     DEPT       AT10       AT20       AT30       AT60       AT90       DPHZ        DT         HCAL         GR        HCAL       HDRA       NPOR       PEFZ       RHOZ        SP        SPHI
#
~A  
# ...
    4107.0     2.4649     2.4101     2.3930     2.3611     2.3390     0.1610   100.1541       8.3837   114.6111     8.3837     0.0091     0.2593     3.0771     2.4347    -4.1875     0.3280
    4107.5     2.4523     2.3989     2.3880     2.3706     2.3206     0.1494    99.4822       8.3837   111.9065     8.3837     0.0155     0.2548     3.0583     2.4546    -4.4375     0.3260
    4108.0     2.4898     2.4215     2.4217     2.4255     2.3418     0.1492    99.1078       8.3619   108.0684     8.3619     0.0157     0.2584     3.0430     2.4548    -4.4375     0.3248
    4108.5     2.4327     2.3691     2.3610     2.3438     2.2892     0.1577    99.7428       8.2747   100.7962     8.2747     0.0131     0.2485     3.0214     2.4403    -4.4375     0.3267
    4109.0     2.2467     2.1718     2.1751     2.1675     2.1195     0.1743   100.5158       8.2529   104.0861     8.2529     0.0076     0.2491     2.9911     2.4120    -3.9375     0.3290
    4109.5     2.0854     1.9999     2.0012     1.9943     1.9659     0.1820   102.1927       8.4709   107.9243     8.4709     0.0128     0.2876     2.9732     2.3987    -3.8125     0.3339
    4110.0     1.9728     1.8995     1.9021     1.8885     1.8627     0.1793   104.0989       8.2965   114.5967     8.2965     0.0226     0.2889     2.9904     2.4034    -3.6250     0.3392
    4110.5     1.8621     1.8363     1.8150     1.7967     1.7708     0.1747   104.6631       8.5580   120.9023     8.5580     0.0322     0.3098     3.0110     2.4113    -3.5625     0.3408
    4111.0     1.7064     1.6764     1.6609     1.6477     1.6444     0.1785   105.9314       8.5363   122.5119     8.5363     0.0274     0.3409     3.0072     2.4048    -3.3125     0.3442
    4111.5     1.5244     1.4921     1.4627     1.4465     1.4374     0.1879   109.5574       8.5145   125.0331     8.5145     0.0199     0.3864     3.0056     2.3887    -3.3125     0.3535
    4112.0     1.4000     1.3976     1.3625     1.3466     1.3360     0.1967   108.6339       8.3183   122.2915     8.3183     0.0106     0.4195     3.0090     2.3736    -3.5625     0.3511
    4112.5     1.5385     1.5569     1.5325     1.5146     1.4927     0.1895   107.5423       8.2529   121.5043     8.2529     0.0189     0.3161     3.0531     2.3859    -4.0000     0.3484
    4113.0     1.8515     1.8118     1.7898     1.7875     1.7487     0.1708   106.6871       8.2747   112.6777     8.2747     0.0399     0.3216     3.1097     2.4179    -3.9375     0.3461
    4113.5     2.0471     1.9958     1.9420     1.9237     1.8734     0.1518   102.0857       8.2747   111.5810     8.2747     0.0559     0.3520     3.1506     2.4505    -3.9375     0.3336
    4114.0     2.1048     2.0089     1.9726     1.9563     1.9087     0.1572   102.0408       8.4491   108.0893     8.4491     0.0462     0.3045     3.1387     2.4412    -4.1250     0.3334
    4114.5     2.1223     2.0326     2.0111     1.9946     1.9366     0.1681   101.8864       8.3619   112.4757     8.3619     0.0257     0.2977     3.1197     2.4225    -4.1250     0.3330
    4115.0     2.1284     2.0440     2.0286     2.0151     1.9690     0.1740   101.8617       8.3837   109.1859     8.3837     0.0082     0.2702     3.1014     2.4124    -4.3125     0.3329
    4115.5     2.1273     2.0601     2.0429     2.0284     2.0029     0.1678   102.0543       8.4600   114.9215     8.4600     0.0041     0.2957     3.1113     2.4231    -4.1875     0.3335
    4116.0     2.1500     2.0965     2.0742     2.0618     2.0349     0.1567   101.8330       8.6234   113.7327     8.6234     0.0123     0.2735     3.1320     2.4421    -4.5000     0.3329
    4116.5     2.1664     2.1279     2.1025     2.0927     2.0640     0.1538   101.7913       8.4927   113.3662     8.4927     0.0197     0.3032     3.1498     2.4470    -4.5625     0.3327
    4117.0     2.1733     2.1489     2.1185     2.1166     2.0824     0.1505   101.2215       8.5145   114.9605     8.5145     0.0304     0.2657     3.1622     2.4526    -4.5625     0.3311
    4117.5     2.1980     2.1641     2.1305     2.1320     2.0859     0.1599   101.0083       8.4927   113.7000     8.4927     0.0220     0.2543     3.1588     2.4366    -4.3125     0.3305
    4118.0     2.2053     2.1675     2.1327     2.1349     2.0809     0.1595   100.6818       8.4491   119.8237     8.4491     0.0222     0.2792     3.1767     2.4372    -4.1875     0.3295
    4118.5     2.2111     2.1700     2.1367     2.1348     2.0861     0.1589   100.3467       8.4491   110.5024     8.4491     0.0202     0.2502     3.1943     2.4383    -4.3125     0.3285
    4119.0     2.2146     2.1699     2.1431     2.1387     2.0869     0.1500   100.4895       8.5363   108.3336     8.5363     0.0314     0.2314     3.2205     2.4535    -4.2500     0.3289
    4119.5     2.2156     2.1657     2.1424     2.1449     2.0937     0.1470   100.6564       8.4709   108.0594     8.4709     0.0393     0.2851     3.2432     2.4586    -4.0000     0.3294
    4120.0     2.2078     2.1559     2.1331     2.1404     2.0899     0.1449   100.5409       8.5145   108.7342     8.5145     0.0434     0.2662     3.2462     2.4622    -4.1875     0.3291
    4120.5     2.2162     2.1653     2.1484     2.1416     2.1000     0.1454   100.5544       8.5145   116.0939     8.5145     0.0382     0.2829     3.2111     2.4613    -4.1250     0.3291
    4121.0     2.2472     2.1830     2.1590     2.1568     2.1124     0.1474   100.3262       8.5363   114.4490     8.5363     0.0290     0.2648     3.1510     2.4580    -4.1250     0.3285
    4121.5     2.1977     2.1441     2.1204     2.1110     2.0781     0.1494   100.3688       8.5580   117.6124     8.5580     0.0224     0.2389     3.1004     2.4546    -3.9375     0.3286
    4122.0     2.0790     2.0324     2.0113     2.0067     1.9755     0.1571   101.6963       8.6670   117.6124     8.6670     0.0159     0.2508     3.0518     2.4414    -3.7500     0.3325
    4122.5     1.9685     1.9403     1.9216     1.9221     1.8933     0.1669   101.8922       8.5363   113.0240     8.5363     0.0111     0.2765     2.9825     2.4246    -3.8750     0.3330
    4123.0     2.0116     1.9889     1.9685     1.9653     1.9366     0.1778   102.2912       8.5798   117.1364     8.5798     0.0060     0.2721     2.9238     2.4059    -4.3125     0.3342
    4123.5     2.1147     2.0849     2.0540     2.0466     2.0147     0.1827   101.6315       8.6670   115.2666     8.6670     0.0034     0.2707     2.9101     2.3976    -4.3125     0.3323
    4124.0     2.1596     2.1181     2.0895     2.0852     2.0524     0.1811   101.4937       8.5798   120.1291     8.5798     0.0030     0.2524     2.9457     2.4004    -4.2500     0.3319
    4124.5     2.1756     2.1300     2.1077     2.1052     2.0717     0.1794   100.9169       8.5363   115.4685     8.5363     0.0033     0.2809     2.9814     2.4033    -4.1875     0.3302
    4125.0     2.2361     2.1759     2.1554     2.1505     2.1170     0.1744   100.7518       8.5798   110.8308     8.5798     0.0067     0.2505     3.0173     2.4117    -4.4375     0.3297
    4125.5     2.2982     2.2291     2.2047     2.1978     2.1665     0.1651   100.5230       8.5798   109.1859     8.5798     0.0170     0.2487     3.0525     2.4277    -4.3125     0.3290
    4126.0     2.3191     2.2552     2.2328     2.2233     2.1935     0.1558    99.9625       8.5798   110.2825     8.5798     0.0165     0.2919     3.0481     2.4436    -4.4375     0.3274
    4126.5     2.3432     2.2839     2.2633     2.2462     2.2228     0.1550   100.1997       8.6343   108.0170     8.6343     0.0126     0.2601     2.9795     2.4450    -4.5625     0.3281
    4127.0     2.3540     2.2979     2.2749     2.2651     2.2358     0.1588   100.0255       8.6234   103.6305     8.6234     0.0021     0.2532     2.9012     2.4385    -4.5000     0.3276
    4127.5     2.3726     2.3138     2.2945     2.2826     2.2552     0.1638    99.7132       8.6452   106.4221     8.6452     0.0020     0.2523     2.8676     2.4300    -4.6250     0.3266
    4128.0     2.3950     2.3488     2.3267     2.3169     2.2875     0.1657    99.6422       8.6670   106.3348     8.6670     0.0022     0.2508     2.8864     2.4266    -4.5625     0.3264
