~VERSION INFORMATION
VERS.           2.0   :CWLS Log ASCII Standard - VERSION 2.0
WRAP.           NO    :One Line per depth step
PROD.  Schlumberger   :LAS Producer
PROG.  DLIS to ASCII 2.3                               :LAS Program name and version
CREA.        2012/03/06 09:37                          :LAS Creation date {YYYY/MM/DD hh:mm}
DLIS_CREA.  2012-Mar-04 13:45                          :DLIS Creation date and time {YYYY-MMM-DD hh:mm}
SOURCE.     BFN8-00160_Bear_Fornstrom_44-32_Main.DLIS  :DLIS File Name
FILE-ID.     AIT_SONIC_TLD_MCFL_029PUP                 :File Identification Number
#--------------------------------------------------
~WELL INFORMATION
#MNEM.UNIT      DATA             DESCRIPTION
#---- ------ --------------   -----------------------------
STRT .F      946.5           :START DEPTH     
STOP .F      7726.5          :STOP DEPTH     
STEP .F       0.5            :STEP     
NULL .          -999.25      :NULL VALUE
COMP .        Bear Oil & Gas, Inc.                     :COMPANY
WELL .        Fornstrom 44-32                          :WELL
FLD  .        Britty                                   :FIELD
LOC  .        Sec. 32, T16N, R60W                      :LOCATION
CNTY .        Laramie                                  :COUNTY
STAT .        Wyoming                                  :STATE
CTRY .                                                 :COUNTRY
API  .        49-021-20913-0000                        :API NUMBER
UWI  .                                                 :UNIQUE WELL ID
DATE .        04-Mar-2012                              :LOG DATE {DD-MMM-YYYY}
SRVC .        Schlumberger                             :SERVICE COMPANY
LATI .DEG                                              :LATITUDE
LONG .DEG                                              :LONGITUDE
GDAT .                                                 :GeoDetic Datum
SECT .        32                                       :Section
RANG .        60W                                      :Range
TOWN .        16N                                      :Township
#-----------------------------------------------------------------------------
~PARAMETER INFORMATION
#MNEM.UNIT    VALUE                      DESCRIPTION
#---- -----   --------------------       ------------------------
CN   .        Bear Oil & Gas  Inc.       :Company Name
WN   .        Fornstrom 44-32            :Well Name
FN   .        Britty                     :Field Name
FL   .        Sec. 32  T16N  R60W        :Field Location
FL1  .        SHL  760' FSL X 757' FEL SESE :Field Location Line 1
COUN .        Laramie                    :County or Rig Name
STAT .        Wyoming                    :State or Province
NATI .                                   :Nation
DATE .        4-Mar-2012                 :Date as Month-Day-Year
APIN .        49-021-20913-0000          :API Serial Number
SECT .        32                         :Section
TOWN .        16N                        :Township
RANG .        60W                        :Range
DMF  .        Kelly Bushing              :Drilling Measured From
LMF  .        Kelly Bushing              :Log Measured From
PDAT .        Ground Level               :Permanent Datum
ENGI .        Tim Hoffman                :Engineer's Name
WITN .        Terry Eittreim             :Witness's Name
LATI .                                   :Latitude
LONG .                                   :Longitude
LUL  .        Ft. Morgan  CO             :Logging Unit Location
LUN  .              2153                 :Logging Unit Number
RUN  .        1                          :Run Number
SON  .        BFN8-00160                 :Service Order Number
BHT  .DEGF     170.00000                 :Bottom Hole Temperature (used in calculations)
BS   .IN         7.87500                 :Bit Size
MDEN .G/C3       2.65000                 :Matrix Density
DFD  .LB/G       9.20000                 :Drilling Fluid Density
DFV  .S         68.00000                 :Drilling Fluid Viscosity
DFL  .C3         5.60000                 :Drilling Fluid Loss
RMFS .OHMM       1.84875                 :Resistivity of Mud Filtrate Sample
EKB  .F       5292.00000                 :Elevation of Kelly Bushing
EGL  .F       5276.00000                 :Elevation of Ground Level
BLI  .F       7696.00000                 :Bottom Log Interval
BSAL .                                   :Borehole Salinity
FLEV .F        300.00000                 :Fluid Level
MCST .DEGF      91.00000                 :Mud Cake Sample Temperature
MFST .DEGF      91.00000                 :Mud Filtrate Sample Temperature
MRT  .DEGF     170.00000                 :Maximum Recorded Temperature
MST  .DEGF      91.00000                 :Mud Sample Temperature
RMCS .OHMM       3.69750                 :Resistivity of Mud Cake Sample
RMS  .OHMM       2.46500                 :Resistivity of Mud Sample
RW   .OHMM       1.00000                 :Resistivity of Connate Water
TDD  .F       7700.00000                 :Total Depth - Driller
TDL  .F       7704.00000                 :Total Depth - Logger
TLI  .F       1044.00000                 :Top Log Interval
HIDE .        BHC Sonic                  :Header Identifier
MATR .        SAND                       :Rock Matrix for Neutron Porosity Corrections
FNUM .           1.00000                 :Form Factor Numerator
FEXP .           2.00000                 :Form Factor Exponent
DFT  .        Gel and Chemical           :Drilling Fluid Type
DFPH .           8.50000                 :Drilling Fluid PH
MCSS .        Calculated                 :Mud Cake Sample Source
MFSS .        Calculated                 :Mud Filtrate Sample Source
FD   .G/C3       1.00000                 :Fluid Density
MSS  .        Flowline                   :Mud Sample Source
OS1  .        PEX AIT                    :Other Services Line 1
OS2  .                                   :Other Services Line 2
OS3  .                                   :Other Services Line 3
OS4  .                                   :Other Services Line 4
OS5  .                                   :Other Services Line 5
R1   .        This is the first run in hole :Remark Line 1
R2   .                                   :Remark Line 2
R3   .        Toolstring run as per tool sketch :Remark Line 3
R4   .                                   :Remark Line 4
R5   .        Matrix  Sandstone (2.65 g/cc) from TD to 7264' :Remark Line 5
R6   .                     Limestone (2.71 g/cc) from 7264' to Surface :Remark Line 6
R7   .                                   :Remark Line 7
R8   .        EDTC run for telemetry and not used for gamma ray :Remark Line 8
TCS  .        3 00                       :Time Circulation Stopped
TLAB .        11 40                      :Time Logger At Bottom
NMT  .        NOBARITE                   :HILT Nuclear Mud Type
EPD  .F         5276.000000              :Elevation of Permanent Datum above Mean Sea Level
APD  .F          16.000000               :Elevation of Depth Reference (LMF) above Permanent Datum
#-----------------------------------------------------------------------------
~CURVE INFORMATION
#MNEM.UNIT   API CODE                                  DESCRIPTION
#---- -----  --------                                  -----------------------
DEPT .F                                                :DEPTH (BOREHOLE) {F10.1}
AT10 .OHMM                                             :Array Induction Two Foot Resistivity A10 {F11.4}
AT20 .OHMM                                             :Array Induction Two Foot Resistivity A20 {F11.4}
AT30 .OHMM                                             :Array Induction Two Foot Resistivity A30 {F11.4}
AT60 .OHMM                                             :Array Induction Two Foot Resistivity A60 {F11.4}
AT90 .OHMM                                             :Array Induction Two Foot Resistivity A90 {F11.4}
DPHZ .CFCF                                             :HRDD Standard Resolution Density Porosity {F11.4}
DT   .US/F                                             :Delta-T {F11.4}
HCAL .IN                                               :HRCC Caliper Calibrated {F13.4}
GR   .GAPI                                             :Gamma-Ray {F11.4}
HCAL .IN                                               :HRCC Caliper Calibrated {F11.4}
HDRA .G/C3                                             :HRDD Density Correction {F11.4}
NPOR .CFCF                                             :Enhanced Thermal Neutron Porosity {F11.4}
PEFZ .                                                 :HRDD Standard Resolution Formation Photoelectric Factor {F11.4}
RHOZ .G/C3                                             :HRDD Standard Resolution Formation Density {F11.4}
SP   .MV                                               :SP Shifted {F11.4}
SPHI .CFCF                                             :Sonic Porosity {F11.4}
#-----------------------------------------------------------------------------
# 
#     DEPT       AT10       AT20       AT30       AT60       AT90       DPHZ        DT         HCAL         GR        HCAL       HDRA       NPOR       PEFZ       RHOZ        SP        SPHI
#
~A  
# ...
    1849.5     3.8047     3.9231     4.0139     4.1776     4.1427     0.2152   113.6291       8.4709    93.9566     8.4709     0.0063     0.3015     3.1394     2.3420   -13.0625     0.3632
    1850.0     3.5694     3.7062     3.8113     3.9650     3.9654     0.2338   116.0466       8.4927    91.9817     8.4927     0.0026     0.3156     3.0274     2.3101   -13.5000     0.3686
    1850.5     3.7515     3.8902     3.9964     4.1632     4.1517     0.2445   116.8106       8.4709    93.9536     8.4709     0.0013     0.3398     2.9302     2.2919   -14.5000     0.3703
    1851.0     3.9137     4.0780     4.1803     4.3655     4.3599     0.2348   116.1627       8.4709    93.5419     8.4709     0.0050     0.3548     2.8200     2.3085   -14.0000     0.3689
    1851.5     3.9264     4.0913     4.1674     4.3504     4.3401     0.2338   115.4675       8.4709    97.8208     8.4709     0.0048     0.3156     2.8296     2.3103   -13.8125     0.3674
    1852.0     3.9290     4.0824     4.1594     4.3400     4.3169     0.2351   115.3528       8.4927   104.4476     8.4927     0.0025     0.3299     2.8662     2.3079   -14.1250     0.3671
    1852.5     3.9377     4.0981     4.1879     4.3577     4.3680     0.2292   115.2697       8.5145   110.1390     8.5145     0.0070     0.3506     2.9557     2.3181   -14.6250     0.3669
    1853.0     4.0432     4.2068     4.2786     4.4496     4.4511     0.2262   115.0354       8.4927   112.7722     8.4927     0.0154     0.3758     3.0438     2.3232   -15.5000     0.3664
    1853.5     4.1337     4.3078     4.4173     4.5760     4.5972     0.2251   114.8042       8.4491   111.1264     8.4491     0.0198     0.3368     3.0578     2.3250   -16.3125     0.3659
    1854.0     4.1625     4.3517     4.4432     4.6487     4.6422     0.2345   115.0616       8.4055   102.9069     8.4055     0.0201     0.2951     3.0052     2.3090   -15.5625     0.3664
    1854.5     4.1120     4.2592     4.3563     4.5770     4.5775     0.2403   115.2249       8.4273    97.6405     8.4273     0.0136     0.3309     2.9138     2.2990   -15.1875     0.3668
    1855.0     4.0295     4.1800     4.2784     4.4907     4.4892     0.2463   115.3469       8.4491    92.7032     8.4491     0.0095     0.3568     2.8576     2.2889   -15.6250     0.3671
    1855.5     4.1165     4.2435     4.3591     4.5901     4.5661     0.2499   115.2895       8.4491    93.4784     8.4491     0.0036     0.3576     2.8072     2.2826   -16.6250     0.3670
    1856.0     4.1679     4.3383     4.4624     4.7149     4.6655     0.2527   115.4409       8.4491    99.1133     8.4491     0.0014     0.3789     2.8152     2.2780   -17.3750     0.3673
    1856.5     4.1376     4.3075     4.4053     4.6266     4.6046     0.2500   115.6533       8.3619   106.0255     8.3619     0.0015     0.3797     2.8217     2.2824   -16.3750     0.3678
    1857.0     4.0729     4.2228     4.3306     4.5488     4.5279     0.2451   115.9669       8.3401   108.6587     8.3401     0.0027     0.3667     2.8298     2.2909   -16.0625     0.3685
    1857.5     4.0638     4.2306     4.3403     4.5536     4.5347     0.2451   116.0927       8.5145   111.1246     8.5145     0.0032     0.3373     2.8347     2.2909   -16.0625     0.3687
    1858.0     4.1132     4.2755     4.3799     4.5805     4.5703     0.2465   116.0911       8.6234   110.7954     8.6234     0.0050     0.2829     2.8244     2.2885   -16.4375     0.3687
    1858.5     4.1476     4.3166     4.4210     4.6312     4.6160     0.2518   115.6679       8.3837   109.8080     8.3837     0.0057     0.3436     2.8021     2.2794   -16.8750     0.3678
    1859.0     4.1909     4.3475     4.4611     4.6887     4.6728     0.2544   115.6090       8.3401   101.5884     8.3401     0.0064     0.3039     2.7678     2.2750   -17.5625     0.3677
    1859.5     4.1761     4.3415     4.4494     4.6565     4.6437     0.2549   115.8298       8.3619   100.6010     8.3619     0.0054     0.2582     2.7777     2.2742   -17.2500     0.3682
    1860.0     4.1539     4.2979     4.4004     4.6056     4.5860     0.2551   115.7257       8.3619   102.5759     8.3619     0.0049     0.3618     2.8163     2.2738   -17.2500     0.3679
    1860.5     4.1775     4.3387     4.4554     4.6681     4.6464     0.2548   116.2144       8.3619   102.9869     8.3619     0.0059     0.3586     2.8508     2.2743   -18.0625     0.3690
    1861.0     4.2214     4.4133     4.5305     4.7118     4.7193     0.2515   116.2282       8.3401   104.9618     8.3401     0.0130     0.3119     2.8790     2.2800   -18.8125     0.3690
    1861.5     4.2680     4.4533     4.5791     4.7929     4.7703     0.2442   116.1494       8.3619   107.9241     8.3619     0.0200     0.3485     2.8876     2.2924   -19.0000     0.3689
    1862.0     4.3172     4.4762     4.5859     4.8070     4.7788     0.2443   116.1603       8.3837   113.2668     8.3837     0.0223     0.2698     2.9081     2.2922   -19.1875     0.3689
    1862.5     4.2241     4.3861     4.5069     4.7281     4.7005     0.2443   116.4438       8.3837   104.7089     8.3837     0.0263     0.2964     2.9131     2.2923   -19.0625     0.3695
    1863.0     4.0836     4.2471     4.3693     4.5924     4.5811     0.2509   116.6595       8.3837   104.7089     8.3837     0.0212     0.3545     2.8898     2.2810   -18.6250     0.3700
    1863.5     4.1342     4.3032     4.3978     4.5795     4.6205     0.2516   116.1766       8.3619   104.0113     8.3619     0.0177     0.3165     2.8228     2.2797   -19.1250     0.3689
    1864.0     4.2697     4.4279     4.5637     4.7603     4.8138     0.2563   116.4481       8.2965   108.1715     8.2965     0.0074     0.3236     2.7825     2.2717   -19.5000     0.3695
    1864.5     4.1627     4.3097     4.4411     4.6572     4.6862     0.2572   117.0059       8.3183   105.5383     8.3183     0.0076     0.3347     2.8014     2.2703   -19.5000     0.3707
    1865.0     3.7745     3.9193     3.9768     4.1543     4.1374     0.2552   117.2699       8.2965   103.8370     8.2965     0.0102     0.3179     2.8374     2.2736   -18.4375     0.3713
    1865.5     3.5791     3.6998     3.7816     3.9631     3.9644     0.2580   117.7054       8.2965   106.8650     8.2965     0.0097     0.3238     2.8233     2.2689   -18.6250     0.3723
    1866.0     3.9093     4.0757     4.1605     4.3773     4.3569     0.2586   117.0685       8.2965   104.5609     8.2965     0.0086     0.3006     2.7821     2.2679   -19.6875     0.3709
    1866.5     4.2748     4.4351     4.5303     4.7494     4.7258     0.2549   116.3887       8.3401    95.0908     8.3401     0.0077     0.2881     2.7521     2.2740   -19.8125     0.3694
    1867.0     4.2774     4.4271     4.5040     4.7309     4.7071     0.2552   115.5814       8.3401    91.8524     8.3401     0.0075     0.2971     2.7555     2.2737   -18.6875     0.3676
    1867.5     4.0957     4.2551     4.3500     4.5537     4.5390     0.2511   115.9616       8.3619    87.8588     8.3619     0.0097     0.2859     2.7959     2.2806   -17.5625     0.3684
    1868.0     4.0021     4.1720     4.2744     4.4674     4.4636     0.2453   116.3664       8.3401    98.5642     8.3401     0.0141     0.3129     2.8372     2.2906   -18.0625     0.3693
    1868.5     4.0749     4.2476     4.3398     4.5245     4.5129     0.2362   116.6806       8.3183    93.9561     8.3183     0.0173     0.3713     2.8694     2.3061   -19.1875     0.3700
    1869.0     4.1575     4.3239     4.4184     4.6030     4.6033     0.2367   117.1880       8.2965    97.6206     8.2965     0.0151     0.2948     2.8557     2.3052   -19.7500     0.3711
    1869.5     4.2432     4.4136     4.5051     4.6987     4.7057     0.2461   116.6021       8.2529    96.7293     8.2529     0.0093     0.2933     2.8337     2.2891   -19.8125     0.3699
    1870.0     4.3380     4.5129     4.6196     4.8302     4.7922     0.2529   116.4489       8.2311    98.3751     8.2311     0.0059     0.3553     2.8021     2.2775   -19.8750     0.3695
    1870.5     4.4012     4.5762     4.6928     4.9118     4.8562     0.2543   116.1224       8.2311    95.0836     8.2311     0.0030     0.3336     2.7681     2.2751   -20.4375     0.3688
