~VERSION INFORMATION
VERS.           2.0   :CWLS Log ASCII Standard - VERSION 2.0
WRAP.           NO    :One Line per depth step
PROD.  Schlumberger   :LAS Producer
PROG.  DLIS to ASCII 2.3                               :LAS Program name and version
CREA.        2012/03/06 09:37                          :LAS Creation date {YYYY/MM/DD hh:mm}
DLIS_CREA.  2012-Mar-04 13:45                          :DLIS Creation date and time {YYYY-MMM-DD hh:mm}
SOURCE.     BFN8-00160_Bear_Fornstrom_44-32_Main.DLIS  :DLIS File Name
FILE-ID.     AIT_SONIC_TLD_MCFL_029PUP                 :File Identification Number
#--------------------------------------------------
~WELL INFORMATION
#MNEM.UNIT      DATA             DESCRIPTION
#---- ------ --------------   -----------------------------
STRT .F      946.5           :START DEPTH     
STOP .F      7726.5          :STOP DEPTH     
STEP .F       0.5            :STEP     
NULL .          -999.25      :NULL VALUE
COMP .        Bear Oil & Gas, Inc.                     :COMPANY
WELL .        Fornstrom 44-32                          :WELL
FLD  .        Britty                                   :FIELD
LOC  .        Sec. 32, T16N, R60W                      :LOCATION
CNTY .        Laramie                                  :COUNTY
STAT .        Wyoming                                  :STATE
CTRY .                                                 :COUNTRY
API  .        49-021-20913-0000                        :API NUMBER
UWI  .                                                 :UNIQUE WELL ID
DATE .        04-Mar-2012                              :LOG DATE {DD-MMM-YYYY}
SRVC .        Schlumberger                             :SERVICE COMPANY
LATI .DEG                                              :LATITUDE
LONG .DEG                                              :LONGITUDE
GDAT .                                                 :GeoDetic Datum
SECT .        32                                       :Section
RANG .        60W                                      :Range
TOWN .        16N                                      :Township
#-----------------------------------------------------------------------------
~PARAMETER INFORMATION
#MNEM.UNIT    VALUE                      DESCRIPTION
#---- -----   --------------------       ------------------------
CN   .        Bear Oil & Gas  Inc.       :Company Name
WN   .        Fornstrom 44-32            :Well Name
FN   .        Britty                     :Field Name
FL   .        Sec. 32  T16N  R60W        :Field Location
FL1  .        SHL  760' FSL X 757' FEL SESE :Field Location Line 1
COUN .        Laramie                    :County or Rig Name
STAT .        Wyoming                    :State or Province
NATI .                                   :Nation
DATE .        4-Mar-2012                 :Date as Month-Day-Year
APIN .        49-021-20913-0000          :API Serial Number
SECT .        32                         :Section
TOWN .        16N                        :Township
RANG .        60W                        :Range
DMF  .        Kelly Bushing              :Drilling Measured From
LMF  .        Kelly Bushing              :Log Measured From
PDAT .        Ground Level               :Permanent Datum
ENGI .        Tim Hoffman                :Engineer's Name
WITN .        Terry Eittreim             :Witness's Name
LATI .                                   :Latitude
LONG .                                   :Longitude
LUL  .        Ft. Morgan  CO             :Logging Unit Location
LUN  .              2153                 :Logging Unit Number
RUN  .        1                          :Run Number
SON  .        BFN8-00160                 :Service Order Number
BHT  .DEGF     170.00000                 :Bottom Hole Temperature (used in calculations)
BS   .IN         7.87500                 :Bit Size
MDEN .G/C3       2.65000                 :Matrix Density
DFD  .LB/G       9.20000                 :Drilling Fluid Density
DFV  .S         68.00000                 :Drilling Fluid Viscosity
DFL  .C3         5.60000                 :Drilling Fluid Loss
RMFS .OHMM       1.84875                 :Resistivity of Mud Filtrate Sample
EKB  .F       5292.00000                 :Elevation of Kelly Bushing
EGL  .F       5276.00000                 :Elevation of Ground Level
BLI  .F       7696.00000                 :Bottom Log Interval
BSAL .                                   :Borehole Salinity
FLEV .F        300.00000                 :Fluid Level
MCST .DEGF      91.00000                 :Mud Cake Sample Temperature
MFST .DEGF      91.00000                 :Mud Filtrate Sample Temperature
MRT  .DEGF     170.00000                 :Maximum Recorded Temperature
MST  .DEGF      91.00000                 :Mud Sample Temperature
RMCS .OHMM       3.69750                 :Resistivity of Mud Cake Sample
RMS  .OHMM       2.46500                 :Resistivity of Mud Sample
RW   .OHMM       1.00000                 :Resistivity of Connate Water
TDD  .F       7700.00000                 :Total Depth - Driller
TDL  .F       7704.00000                 :Total Depth - Logger
TLI  .F       1044.00000                 :Top Log Interval
HIDE .        BHC Sonic                  :Header Identifier
MATR .        SAND                       :Rock Matrix for Neutron Porosity Corrections
FNUM .           1.00000                 :Form Factor Numerator
FEXP .           2.00000                 :Form Factor Exponent
DFT  .        Gel and Chemical           :Drilling Fluid Type
DFPH .           8.50000                 :Drilling Fluid PH
MCSS .        Calculated                 :Mud Cake Sample Source
MFSS .        Calculated                 :Mud Filtrate Sample Source
FD   .G/C3       1.00000                 :Fluid Density
MSS  .        Flowline                   :Mud Sample Source
OS1  .        PEX AIT                    :Other Services Line 1
OS2  .                                   :Other Services Line 2
OS3  .                                   :Other Services Line 3
OS4  .                                   :Other Services Line 4
OS5  .                                   :Other Services Line 5
R1   .        This is the first run in hole :Remark Line 1
R2   .                                   :Remark Line 2
R3   .        Toolstring run as per tool sketch :Remark Line 3
R4   .                                   :Remark Line 4
R5   .        Matrix  Sandstone (2.65 g/cc) from TD to 7264' :Remark Line 5
R6   .                     Limestone (2.71 g/cc) from 7264' to Surface :Remark Line 6
R7   .                                   :Remark Line 7
R8   .        EDTC run for telemetry and not used for gamma ray :Remark Line 8
TCS  .        3 00                       :Time Circulation Stopped
TLAB .        11 40                      :Time Logger At Bottom
NMT  .        NOBARITE                   :HILT Nuclear Mud Type
EPD  .F         5276.000000              :Elevation of Permanent Datum above Mean Sea Level
APD  .F          16.000000               :Elevation of Depth Reference (LMF) above Permanent Datum
#-----------------------------------------------------------------------------
~CURVE INFORMATION
#MNEM.UNIT   API CODE                                  DESCRIPTION
#---- -----  --------                                  -----------------------
DEPT .F                                                :DEPTH (BOREHOLE) {F10.1}
AT10 .OHMM                                             :Array Induction Two Foot Resistivity A10 {F11.4}
AT20 .OHMM                                             :Array Induction Two Foot Resistivity A20 {F11.4}
AT30 .OHMM                                             :Array Induction Two Foot Resistivity A30 {F11.4}
AT60 .OHMM                                             :Array Induction Two Foot Resistivity A60 {F11.4}
AT90 .OHMM                                             :Array Induction Two Foot Resistivity A90 {F11.4}
DPHZ .CFCF                                             :HRDD Standard Resolution Density Porosity {F11.4}
DT   .US/F                                             :Delta-T {F11.4}
HCAL .IN                                               :HRCC Caliper Calibrated {F13.4}
GR   .GAPI                                             :Gamma-Ray {F11.4}
HCAL .IN                                               :HRCC Caliper Calibrated {F11.4}
HDRA .G/C3                                             :HRDD Density Correction {F11.4}
NPOR .CFCF                                             :Enhanced Thermal Neutron Porosity {F11.4}
PEFZ .                                                 :HRDD Standard Resolution Formation Photoelectric Factor {F11.4}
RHOZ .G/C3                                             :HRDD Standard Resolution Formation Density {F11.4}
SP   .MV                                               :SP Shifted {F11.4}
SPHI .CFCF                                             :Sonic Porosity {F11.4}
#-----------------------------------------------------------------------------
# 
#     DEPT       AT10       AT20       AT30       AT60       AT90       DPHZ        DT         HCAL         GR        HCAL       HDRA       NPOR       PEFZ       RHOZ        SP        SPHI
#
~A  
# ...
    6343.0     2.3211     2.1883     2.1161     2.0428     2.0124     0.0993    92.0063       7.9260   104.0511     7.9260     0.0508     0.2574     3.2174     2.5401     2.1250     0.3017
    6343.5     2.4189     2.2789     2.1999     2.1235     2.0882     0.1025    91.6331       7.9478   103.0372     7.9478     0.0396     0.2317     3.2013     2.5346     2.2500     0.3003
    6344.0     2.5168     2.3573     2.2723     2.2039     2.1667     0.1121    91.0087       7.9478   103.7420     7.9478     0.0203     0.2511     3.2089     2.5184     2.0625     0.2981
    6344.5     2.6467     2.4662     2.3856     2.2994     2.2617     0.1241    90.7158       7.9260   103.7420     7.9260     0.0008     0.2502     3.2301     2.4977     1.6250     0.2971
    6345.0     2.7901     2.5767     2.4891     2.3959     2.3523     0.1258    89.7150       7.9696   100.9201     7.9696    -0.0023     0.2288     3.2813     2.4949     2.0625     0.2934
    6345.5     2.8757     2.6236     2.5287     2.4346     2.3847     0.1178    89.0675       7.9696    99.0043     7.9696     0.0019     0.2297     3.2757     2.5085     1.9375     0.2910
    6346.0     2.8534     2.6186     2.5285     2.4350     2.3856     0.1074    89.5042       7.9914    98.6598     7.9914     0.0144     0.2483     3.2749     2.5263     1.6875     0.2926
    6346.5     2.7158     2.5101     2.4246     2.3359     2.2864     0.0975    89.8506       7.9696   106.6092     7.9696     0.0301     0.2625     3.2529     2.5433     2.0000     0.2939
    6347.0     2.5529     2.3912     2.3094     2.2408     2.1907     0.0946    91.4369       8.0350   113.5009     8.0350     0.0441     0.2348     3.2325     2.5482     2.4375     0.2996
    6347.5     2.4268     2.3021     2.2336     2.1635     2.1188     0.1019    92.1384       7.9805   117.9591     7.9805     0.0506     0.2436     3.1884     2.5357     2.6250     0.3021
    6348.0     2.3840     2.2679     2.1986     2.1293     2.0868     0.1028    91.7415       7.9696   117.2561     7.9696     0.0565     0.2427     3.1667     2.5343     3.0625     0.3007
    6348.5     2.4356     2.2915     2.2075     2.1471     2.1028     0.1050    92.3442       7.9369   112.6269     7.9369     0.0581     0.2399     3.1677     2.5305     3.0625     0.3028
    6349.0     2.4829     2.3241     2.2361     2.1627     2.1216     0.1000    91.3662       7.9478   112.6709     7.9478     0.0591     0.2454     3.1914     2.5389     2.0625     0.2994
    6349.5     2.4842     2.3253     2.2450     2.1663     2.1286     0.1055    91.1156       7.9260   103.2955     7.9260     0.0510     0.2676     3.2167     2.5296     2.4375     0.2985
    6350.0     2.5010     2.3245     2.2471     2.1680     2.1313     0.1012    91.1565       7.9914    99.6600     7.9914     0.0534     0.2442     3.2413     2.5370     2.5625     0.2986
    6350.5     2.4970     2.3333     2.2570     2.1808     2.1440     0.0938    91.3769       7.9260    99.2047     7.9260     0.0643     0.2867     3.2547     2.5496     2.6250     0.2994
    6351.0     2.5390     2.3718     2.2930     2.2138     2.1780     0.0911    90.9047       7.9696   102.9797     7.9696     0.0702     0.2483     3.2494     2.5542     2.8125     0.2977
    6351.5     2.5919     2.4239     2.3397     2.2572     2.2172     0.0948    90.8543       7.9042    99.2212     7.9042     0.0605     0.2032     3.2529     2.5478     2.5625     0.2976
    6352.0     2.6528     2.4738     2.3886     2.3021     2.2592     0.0946    90.6216       7.9914    97.9872     7.9914     0.0516     0.2520     3.2674     2.5482     1.5625     0.2967
    6352.5     2.6426     2.4703     2.3910     2.3087     2.2552     0.0940    90.2829       8.0132    95.1653     8.0132     0.0516     0.2799     3.2772     2.5492     1.7500     0.2955
    6353.0     2.6472     2.4740     2.3966     2.3127     2.2595     0.0898    90.7839       7.9914   106.8785     7.9914     0.0561     0.2283     3.2526     2.5565     1.3750     0.2973
    6353.5     2.6603     2.4874     2.4115     2.3241     2.2699     0.0928    90.2716       7.9914   106.4148     7.9914     0.0449     0.2521     3.2093     2.5513     1.5625     0.2954
    6354.0     2.6455     2.4791     2.3983     2.3129     2.2714     0.0945    90.4191       7.9696   108.3412     7.9696     0.0293     0.2485     3.1657     2.5483     1.6875     0.2960
    6354.5     2.6243     2.4528     2.3792     2.2969     2.2580     0.0985    90.6300       7.9696   107.2402     7.9696     0.0212     0.2608     3.1489     2.5415     1.8750     0.2967
    6355.0     2.6099     2.4319     2.3560     2.2717     2.2385     0.0962    90.6790       7.9805   108.9379     7.9805     0.0267     0.2711     3.1677     2.5455     1.6875     0.2969
    6355.5     2.5917     2.4296     2.3521     2.2610     2.2318     0.0945    90.8797       7.9914   113.3196     7.9914     0.0394     0.2397     3.2119     2.5483     1.3750     0.2976
    6356.0     2.5404     2.3830     2.3059     2.2176     2.1824     0.0958    91.3834       8.0350   109.5571     8.0350     0.0450     0.2496     3.2230     2.5462     1.7500     0.2994
    6356.5     2.4638     2.3140     2.2413     2.1572     2.1260     0.0995    91.7246       8.0132   111.4082     8.0132     0.0432     0.2707     3.2156     2.5399     2.2500     0.3007
    6357.0     2.4315     2.2950     2.2176     2.1354     2.1030     0.1027    92.0222       8.0132   105.0658     8.0132     0.0376     0.2467     3.2222     2.5344     1.9375     0.3017
    6357.5     2.4285     2.2788     2.1984     2.1151     2.0776     0.0956    92.5529       7.9696   104.9929     7.9696     0.0472     0.2524     3.2858     2.5465     1.2500     0.3036
    6358.0     2.3392     2.1913     2.1173     2.0392     2.0035     0.0991    92.7527       8.0350   106.8894     8.0350     0.0536     0.2853     3.3035     2.5405     2.0000     0.3043
    6358.5     2.2523     2.1150     2.0452     1.9716     1.9318     0.0991    93.0169       7.9478   110.8731     7.9478     0.0666     0.2530     3.2793     2.5405     1.9375     0.3052
    6359.0     2.1604     2.0410     1.9766     1.9083     1.8769     0.1040    94.4190       7.9478   111.6514     7.9478     0.0686     0.2440     3.2242     2.5321     1.5625     0.3099
    6359.5     2.1038     1.9958     1.9356     1.8655     1.8359     0.1052    94.4322       7.9369   110.1663     7.9369     0.0718     0.2616     3.2033     2.5300     1.8750     0.3100
    6360.0     2.1444     2.0282     1.9632     1.8895     1.8567     0.1034    94.2370       7.9478   105.7467     7.9478     0.0691     0.2788     3.2312     2.5331     1.6875     0.3093
    6360.5     2.2255     2.0949     2.0232     1.9442     1.9122     0.1035    94.0647       7.9587   103.4973     7.9587     0.0694     0.2816     3.2876     2.5331     1.3125     0.3087
    6361.0     2.2450     2.1033     2.0274     1.9468     1.9149     0.1023    93.8368       7.9696    97.6925     7.9696     0.0769     0.2674     3.3400     2.5351     1.6250     0.3080
    6361.5     2.2144     2.0827     2.0092     1.9297     1.8946     0.1065    93.6984       7.9478   104.4085     7.9478     0.0815     0.2788     3.3389     2.5278     1.9375     0.3075
    6362.0     2.2236     2.0962     2.0299     1.9550     1.9229     0.1075    93.5218       7.9696   108.9687     7.9696     0.0786     0.2559     3.3131     2.5262     2.1250     0.3069
    6362.5     2.2961     2.1691     2.1009     2.0239     1.9869     0.1067    92.5938       7.9478   110.4542     7.9478     0.0681     0.2548     3.3244     2.5275     1.6875     0.3037
    6363.0     2.4048     2.2453     2.1694     2.0928     2.0520     0.0982    91.6398       7.9478   105.6195     7.9478     0.0596     0.2616     3.3874     2.5420     1.6875     0.3004
    6363.5     2.5167     2.3351     2.2535     2.1693     2.1299     0.0849    91.4843       7.9478    97.1629     7.9478     0.0513     0.2371     3.4175     2.5649     0.7500     0.2998
    6364.0     2.5265     2.3488     2.2719     2.1906     2.1537     0.0897    91.1149       7.9260    96.7516     7.9260     0.0354     0.2234     3.3376     2.5566     1.8750     0.2985
