~VERSION INFORMATION
VERS.           2.0   :CWLS Log ASCII Standard - VERSION 2.0
WRAP.           NO    :One Line per depth step
PROD.  Schlumberger   :LAS Producer
PROG.  DLIS to ASCII 2.3                               :LAS Program name and version
CREA.        2012/03/06 09:37                          :LAS Creation date {YYYY/MM/DD hh:mm}
DLIS_CREA.  2012-Mar-04 13:45                          :DLIS Creation date and time {YYYY-MMM-DD hh:mm}
SOURCE.     BFN8-00160_Bear_Fornstrom_44-32_Main.DLIS  :DLIS File Name
FILE-ID.     AIT_SONIC_TLD_MCFL_029PUP                 :File Identification Number
#--------------------------------------------------
~WELL INFORMATION
#MNEM.UNIT      DATA             DESCRIPTION
#---- ------ --------------   -----------------------------
STRT .F      946.5           :START DEPTH     
STOP .F      7726.5          :STOP DEPTH     
STEP .F       0.5            :STEP     
NULL .          -999.25      :NULL VALUE
COMP .        Bear Oil & Gas, Inc.                     :COMPANY
WELL .        Fornstrom 44-32                          :WELL
FLD  .        Britty                                   :FIELD
LOC  .        Sec. 32, T16N, R60W                      :LOCATION
CNTY .        Laramie                                  :COUNTY
STAT .        Wyoming                                  :STATE
CTRY .                                                 :COUNTRY
API  .        49-021-20913-0000                        :API NUMBER
UWI  .                                                 :UNIQUE WELL ID
DATE .        04-Mar-2012                              :LOG DATE {DD-MMM-YYYY}
SRVC .        Schlumberger                             :SERVICE COMPANY
LATI .DEG                                              :LATITUDE
LONG .DEG                                              :LONGITUDE
GDAT .                                                 :GeoDetic Datum
SECT .        32                                       :Section
RANG .        60W                                      :Range
TOWN .        16N                                      :Township
#-----------------------------------------------------------------------------
~PARAMETER INFORMATION
#MNEM.UNIT    VALUE                      DESCRIPTION
#---- -----   --------------------       ------------------------
CN   .        Bear Oil & Gas  Inc.       :Company Name
WN   .        Fornstrom 44-32            :Well Name
FN   .        Britty                     :Field Name
FL   .        Sec. 32  T16N  R60W        :Field Location
FL1  .        SHL  760' FSL X 757' FEL SESE :Field Location Line 1
COUN .        Laramie                    :County or Rig Name
STAT .        Wyoming                    :State or Province
NATI .                                   :Nation
DATE .        4-Mar-2012                 :Date as Month-Day-Year
APIN .        49-021-20913-0000          :API Serial Number
SECT .        32                         :Section
TOWN .        16N                        :Township
RANG .        60W                        :Range
DMF  .        Kelly Bushing              :Drilling Measured From
LMF  .        Kelly Bushing              :Log Measured From
PDAT .        Ground Level               :Permanent Datum
ENGI .        Tim Hoffman                :Engineer's Name
WITN .        Terry Eittreim             :Witness's Name
LATI .                                   :Latitude
LONG .                                   :Longitude
LUL  .        Ft. Morgan  CO             :Logging Unit Location
LUN  .              2153                 :Logging Unit Number
RUN  .        1                          :Run Number
SON  .        BFN8-00160                 :Service Order Number
BHT  .DEGF     170.00000                 :Bottom Hole Temperature (used in calculations)
BS   .IN         7.87500                 :Bit Size
MDEN .G/C3       2.65000                 :Matrix Density
DFD  .LB/G       9.20000                 :Drilling Fluid Density
DFV  .S         68.00000                 :Drilling Fluid Viscosity
DFL  .C3         5.60000                 :Drilling Fluid Loss
RMFS .OHMM       1.84875                 :Resistivity of Mud Filtrate Sample
EKB  .F       5292.00000                 :Elevation of Kelly Bushing
EGL  .F       5276.00000                 :Elevation of Ground Level
BLI  .F       7696.00000                 :Bottom Log Interval
BSAL .                                   :Borehole Salinity
FLEV .F        300.00000                 :Fluid Level
MCST .DEGF      91.00000                 :Mud Cake Sample Temperature
MFST .DEGF      91.00000                 :Mud Filtrate Sample Temperature
MRT  .DEGF     170.00000                 :Maximum Recorded Temperature
MST  .DEGF      91.00000                 :Mud Sample Temperature
RMCS .OHMM       3.69750                 :Resistivity of Mud Cake Sample
RMS  .OHMM       2.46500                 :Resistivity of Mud Sample
RW   .OHMM       1.00000                 :Resistivity of Connate Water
TDD  .F       7700.00000                 :Total Depth - Driller
TDL  .F       7704.00000                 :Total Depth - Logger
TLI  .F       1044.00000                 :Top Log Interval
HIDE .        BHC Sonic                  :Header Identifier
MATR .        SAND                       :Rock Matrix for Neutron Porosity Corrections
FNUM .           1.00000                 :Form Factor Numerator
FEXP .           2.00000                 :Form Factor Exponent
DFT  .        Gel and Chemical           :Drilling Fluid Type
DFPH .           8.50000                 :Drilling Fluid PH
MCSS .        Calculated                 :Mud Cake Sample Source
MFSS .        Calculated                 :Mud Filtrate Sample Source
FD   .G/C3       1.00000                 :Fluid Density
MSS  .        Flowline                   :Mud Sample Source
OS1  .        PEX AIT                    :Other Services Line 1
OS2  .                                   :Other Services Line 2
OS3  .                                   :Other Services Line 3
OS4  .                                   :Other Services Line 4
OS5  .                                   :Other Services Line 5
R1   .        This is the first run in hole :Remark Line 1
R2   .                                   :Remark Line 2
R3   .        Toolstring run as per tool sketch :Remark Line 3
R4   .                                   :Remark Line 4
R5   .        Matrix  Sandstone (2.65 g/cc) from TD to 7264' :Remark Line 5
R6   .                     Limestone (2.71 g/cc) from 7264' to Surface :Remark Line 6
R7   .                                   :Remark Line 7
R8   .        EDTC run for telemetry and not used for gamma ray :Remark Line 8
TCS  .        3 00                       :Time Circulation Stopped
TLAB .        11 40                      :Time Logger At Bottom
NMT  .        NOBARITE                   :HILT Nuclear Mud Type
EPD  .F         5276.000000              :Elevation of Permanent Datum above Mean Sea Level
APD  .F          16.000000               :Elevation of Depth Reference (LMF) above Permanent Datum
#-----------------------------------------------------------------------------
~CURVE INFORMATION
#MNEM.UNIT   API CODE                                  DESCRIPTION
#---- -----  --------                                  -----------------------
DEPT .F                                                :DEPTH (BOREHOLE) {F10.1}
AT10 .OHMM                                             :Array Induction Two Foot Resistivity A10 {F11.4}
AT20 .OHMM                                             :Array Induction Two Foot Resistivity A20 {F11.4}
AT30 .OHMM                                             :Array Induction Two Foot Resistivity A30 {F11.4}
AT60 .OHMM                                             :Array Induction Two Foot Resistivity A60 {F11.4}
AT90 .OHMM                                             :Array Induction Two Foot Resistivity A90 {F11.4}
DPHZ .CFCF                                             :HRDD Standard Resolution Density Porosity {F11.4}
DT   .US/F                                             :Delta-T {F11.4}
HCAL .IN                                               :HRCC Caliper Calibrated {F13.4}
GR   .GAPI                                             :Gamma-Ray {F11.4}
HCAL .IN                                               :HRCC Caliper Calibrated {F11.4}
HDRA .G/C3                                             :HRDD Density Correction {F11.4}
NPOR .CFCF                                             :Enhanced Thermal Neutron Porosity {F11.4}
PEFZ .                                                 :HRDD Standard Resolution Formation Photoelectric Factor {F11.4}
RHOZ .G/C3                                             :HRDD Standard Resolution Formation Density {F11.4}
SP   .MV                                               :SP Shifted {F11.4}
SPHI .CFCF                                             :Sonic Porosity {F11.4}
#-----------------------------------------------------------------------------
# 
#     DEPT       AT10       AT20       AT30       AT60       AT90       DPHZ        DT         HCAL         GR        HCAL       HDRA       NPOR       PEFZ       RHOZ        SP        SPHI
#
~A  
# ...
    2301.0     3.0647     3.1444     3.1890     3.2982     3.2664     0.2432   111.7797       8.0132    99.7036     8.0132     0.0027     0.3345     3.1550     2.2942   -10.4375     0.3589
    2301.5     2.9848     3.0582     3.1034     3.2062     3.1846     0.2406   111.7379       7.9914    99.0974     7.9914     0.0010     0.2878     3.0907     2.2985   -10.3750     0.3588
    2302.0     2.9786     3.0662     3.1196     3.2191     3.1973     0.2384   110.6151       8.0132    98.3899     8.0132     0.0007     0.2922     3.0527     2.3023   -10.5625     0.3560
    2302.5     3.0543     3.1327     3.1849     3.2911     3.2701     0.2393   109.9785       8.0350   103.9621     8.0350    -0.0014     0.3268     3.0703     2.3007   -10.6875     0.3545
    2303.0     3.1394     3.2179     3.2648     3.3676     3.3477     0.2418   109.5325       8.0132   108.8993     8.0132    -0.0028     0.3429     3.0923     2.2965   -10.7500     0.3534
    2303.5     3.1119     3.1916     3.2458     3.3513     3.3327     0.2458   109.2640       8.0132   111.0319     8.0132    -0.0039     0.3604     3.0939     2.2896   -10.7500     0.3527
    2304.0     3.0420     3.1142     3.1685     3.2725     3.2579     0.2448   110.3822       8.0350   110.6482     8.0350    -0.0012     0.3442     3.0648     2.2914   -11.0000     0.3555
    2304.5     2.9905     3.0646     3.1121     3.2119     3.1959     0.2372   110.7450       8.0132   106.6984     8.0132     0.0036     0.3379     3.0313     2.3044   -10.8750     0.3564
    2305.0     2.9620     3.0309     3.0762     3.1866     3.1841     0.2274   111.2370       8.0132   117.7810     8.0132     0.0068     0.3413     3.0163     2.3212   -10.7500     0.3576
    2305.5     2.9667     3.0396     3.0916     3.1953     3.1893     0.2239   111.5043       8.0350   122.8085     8.0350     0.0037     0.3651     3.0238     2.3271   -10.5625     0.3582
    2306.0     2.9888     3.0628     3.1130     3.2138     3.2093     0.2185   111.6722       7.9914   123.4668     7.9914     0.0057     0.3508     3.0253     2.3364   -10.4375     0.3586
    2306.5     2.9955     3.0714     3.1181     3.2207     3.2188     0.2224   111.8373       7.9914   116.2255     7.9914     0.0050     0.2879     3.0206     2.3297   -10.7500     0.3590
    2307.0     3.0004     3.0665     3.1050     3.2069     3.2075     0.2255   111.2157       7.9914   108.6194     7.9914     0.0067     0.3006     3.0311     2.3245   -10.7500     0.3575
    2307.5     3.0609     3.1347     3.1795     3.2869     3.2890     0.2269   110.6983       7.9914   109.7299     7.9914     0.0028     0.3081     3.0104     2.3220   -10.8750     0.3563
    2308.0     3.1591     3.2425     3.2854     3.3903     3.3970     0.2190   109.8721       8.0132   103.4760     8.0132     0.0029     0.3128     2.9752     2.3355   -11.1875     0.3542
    2308.5     3.2039     3.2861     3.3247     3.4243     3.4290     0.2169   108.9690       8.0132   105.1218     8.0132     0.0013     0.2710     2.9673     2.3390   -11.0000     0.3520
    2309.0     3.2054     3.2807     3.3263     3.4302     3.4339     0.2160   108.7184       7.9587   100.3906     7.9587    -0.0003     0.3345     2.9390     2.3407   -11.0000     0.3514
    2309.5     3.2291     3.2943     3.3397     3.4492     3.4488     0.2138   108.5166       7.9478   103.0238     7.9478    -0.0001     0.3011     2.9379     2.3445   -10.8125     0.3508
    2310.0     3.2979     3.3778     3.4294     3.5346     3.5333     0.2113   107.9271       8.0132    97.3835     8.0132     0.0009     0.3293     2.9262     2.3486   -10.6875     0.3494
    2310.5     3.3898     3.4862     3.5423     3.6412     3.6459     0.2129   107.3723       8.0132   101.3333     8.0132     0.0015     0.3265     2.9491     2.3459   -10.8750     0.3479
    2311.0     3.4356     3.5363     3.5892     3.7095     3.6933     0.2153   106.9709       8.0568   103.9949     8.0568     0.0013     0.2776     2.9360     2.3418   -10.5000     0.3469
    2311.5     3.4408     3.5286     3.5878     3.7064     3.6905     0.2157   106.6748       8.0132   103.7105     8.0132     0.0014     0.2944     2.9269     2.3412   -10.8750     0.3461
    2312.0     3.4494     3.5282     3.5909     3.7128     3.6927     0.2180   106.6561       8.0350   107.9289     8.0350     0.0008     0.3427     2.9283     2.3373   -10.5625     0.3461
    2312.5     3.4480     3.5281     3.5907     3.7143     3.6959     0.2145   106.7264       8.1004   100.1058     8.1004     0.0021     0.2927     2.9596     2.3432   -10.5000     0.3462
    2313.0     3.4482     3.5254     3.5927     3.7164     3.7003     0.2161   106.8890       7.9696   104.3847     7.9696     0.0037     0.3297     2.9807     2.3405   -10.6875     0.3467
    2313.5     3.4393     3.5289     3.5889     3.7093     3.7023     0.2152   106.9545       7.9696   104.4452     7.9696     0.0046     0.3310     2.9823     2.3420   -10.5625     0.3468
    2314.0     3.4367     3.5188     3.5793     3.6954     3.6950     0.2228   107.2142       7.9914   105.9390     7.9914     0.0025     0.3551     3.0052     2.3290   -10.5000     0.3475
    2314.5     3.4212     3.5068     3.5721     3.6934     3.6886     0.2200   106.9059       7.8824   110.3289     7.8824     0.0019     0.3280     3.0084     2.3338   -10.7500     0.3467
    2315.0     3.4342     3.5090     3.5757     3.6974     3.6931     0.2169   106.7617       7.8606   105.0625     7.8606     0.0025     0.2821     3.0174     2.3391   -10.7500     0.3463
    2315.5     3.4461     3.5075     3.5646     3.6749     3.6787     0.2116   106.7209       7.8824   110.3210     7.8824     0.0034     0.2925     3.0196     2.3482   -11.2500     0.3462
    2316.0     3.3956     3.4624     3.5338     3.6561     3.6588     0.2013   106.6697       7.8824   106.5894     7.8824     0.0051     0.3158     3.0383     2.3657   -11.3750     0.3461
    2316.5     3.3463     3.4058     3.4597     3.5514     3.5709     0.1913   106.8567       7.9042   108.2351     7.9042     0.0067     0.3290     3.0692     2.3828   -11.4375     0.3466
    2317.0     3.3839     3.4461     3.5035     3.5948     3.6031     0.1808   107.0312       7.9260   107.6319     7.9260     0.0094     0.2873     3.1048     2.4008   -11.4375     0.3470
    2317.5     3.4221     3.4951     3.5441     3.6313     3.6370     0.1851   107.2509       7.9260   108.0042     7.9260     0.0072     0.3073     3.0976     2.3935   -11.4375     0.3476
    2318.0     3.4531     3.5276     3.5644     3.6583     3.6578     0.1957   107.7566       7.9478   103.7252     7.9478     0.0049     0.3380     3.0794     2.3754   -11.3750     0.3489
    2318.5     3.5249     3.6076     3.6719     3.7616     3.7593     0.1926   102.9807       7.9042   101.0920     7.9042     0.0134     0.3061     3.1275     2.3807   -11.2500     0.3361
    2319.0     3.8235     3.9142     4.0184     4.1093     4.1036     0.1863    99.9732       7.7734    93.4785     7.7734     0.0161     0.2825     3.2246     2.3915   -11.0625     0.3274
    2319.5     4.0042     4.0911     4.1671     4.2933     4.2853     0.1648    99.9002       7.8388    93.3597     7.8388     0.0251     0.2418     3.3273     2.4281   -11.1875     0.3272
    2320.0     3.6318     3.7011     3.8121     3.9257     3.9131     0.1656    99.8820       7.9042    97.6387     7.9042     0.0216     0.2355     3.3064     2.4269   -11.4375     0.3271
    2320.5     3.4091     3.4693     3.5477     3.6560     3.6419     0.1766   107.9110       7.9042    95.6638     7.9042     0.0189     0.2974     3.2237     2.4080   -11.2500     0.3493
    2321.0     3.3834     3.4292     3.5109     3.6205     3.6153     0.1958   108.1273       7.9042    92.4910     7.9042     0.0098     0.2746     3.1220     2.3752   -11.4375     0.3499
    2321.5     3.4098     3.4705     3.5411     3.6486     3.6633     0.2144   107.9423       7.8824    91.5036     7.8824    -0.0003     0.2979     3.0891     2.3433   -11.3750     0.3494
    2322.0     3.4608     3.5353     3.6090     3.7193     3.7404     0.2168   107.5368       7.9042   101.0920     7.9042    -0.0003     0.3045     3.0760     2.3392   -11.5000     0.3484
