~VERSION INFORMATION
VERS.           2.0   :CWLS Log ASCII Standard - VERSION 2.0
WRAP.           NO    :One Line per depth step
PROD.  Schlumberger   :LAS Producer
PROG.  DLIS to ASCII 2.3                               :LAS Program name and version
CREA.        2012/03/06 09:37                          :LAS Creation date {YYYY/MM/DD hh:mm}
DLIS_CREA.  2012-Mar-04 13:45                          :DLIS Creation date and time {YYYY-MMM-DD hh:mm}
SOURCE.     BFN8-00160_Bear_Fornstrom_44-32_Main.DLIS  :DLIS File Name
FILE-ID.     AIT_SONIC_TLD_MCFL_029PUP                 :File Identification Number
#--------------------------------------------------
~WELL INFORMATION
#MNEM.UNIT      DATA             DESCRIPTION
#---- ------ --------------   -----------------------------
STRT .F      946.5           :START DEPTH     
STOP .F      7726.5          :STOP DEPTH     
STEP .F       0.5            :STEP     
NULL .          -999.25      :NULL VALUE
COMP .        Bear Oil & Gas, Inc.                     :COMPANY
WELL .        Fornstrom 44-32                          :WELL
FLD  .        Britty                                   :FIELD
LOC  .        Sec. 32, T16N, R60W                      :LOCATION
CNTY .        Laramie                                  :COUNTY
STAT .        Wyoming                                  :STATE
CTRY .                                                 :COUNTRY
API  .        49-021-20913-0000                        :API NUMBER
UWI  .                                                 :UNIQUE WELL ID
DATE .        04-Mar-2012                              :LOG DATE {DD-MMM-YYYY}
SRVC .        Schlumberger                             :SERVICE COMPANY
LATI .DEG                                              :LATITUDE
LONG .DEG                                              :LONGITUDE
GDAT .                                                 :GeoDetic Datum
SECT .        32                                       :Section
RANG .        60W                                      :Range
TOWN .        16N                                      :Township
#-----------------------------------------------------------------------------
~PARAMETER INFORMATION
#MNEM.UNIT    VALUE                      DESCRIPTION
#---- -----   --------------------       ------------------------
CN   .        Bear Oil & Gas  Inc.       :Company Name
WN   .        Fornstrom 44-32            :Well Name
FN   .        Britty                     :Field Name
FL   .        Sec. 32  T16N  R60W        :Field Location
FL1  .        SHL  760' FSL X 757' FEL SESE :Field Location Line 1
COUN .        Laramie                    :County or Rig Name
STAT .        Wyoming                    :State or Province
NATI .                                   :Nation
DATE .        4-Mar-2012                 :Date as Month-Day-Year
APIN .        49-021-20913-0000          :API Serial Number
SECT .        32                         :Section
TOWN .        16N                        :Township
RANG .        60W                        :Range
DMF  .        Kelly Bushing              :Drilling Measured From
LMF  .        Kelly Bushing              :Log Measured From
PDAT .        Ground Level               :Permanent Datum
ENGI .        Tim Hoffman                :Engineer's Name
WITN .        Terry Eittreim             :Witness's Name
LATI .                                   :Latitude
LONG .                                   :Longitude
LUL  .        Ft. Morgan  CO             :Logging Unit Location
LUN  .              2153                 :Logging Unit Number
RUN  .        1                          :Run Number
SON  .        BFN8-00160                 :Service Order Number
BHT  .DEGF     170.00000                 :Bottom Hole Temperature (used in calculations)
BS   .IN         7.87500                 :Bit Size
MDEN .G/C3       2.65000                 :Matrix Density
DFD  .LB/G       9.20000                 :Drilling Fluid Density
DFV  .S         68.00000                 :Drilling Fluid Viscosity
DFL  .C3         5.60000                 :Drilling Fluid Loss
RMFS .OHMM       1.84875                 :Resistivity of Mud Filtrate Sample
EKB  .F       5292.00000                 :Elevation of Kelly Bushing
EGL  .F       5276.00000                 :Elevation of Ground Level
BLI  .F       7696.00000                 :Bottom Log Interval
BSAL .                                   :Borehole Salinity
FLEV .F        300.00000                 :Fluid Level
MCST .DEGF      91.00000                 :Mud Cake Sample Temperature
MFST .DEGF      91.00000                 :Mud Filtrate Sample Temperature
MRT  .DEGF     170.00000                 :Maximum Recorded Temperature
MST  .DEGF      91.00000                 :Mud Sample Temperature
RMCS .OHMM       3.69750                 :Resistivity of Mud Cake Sample
RMS  .OHMM       2.46500                 :Resistivity of Mud Sample
RW   .OHMM       1.00000                 :Resistivity of Connate Water
TDD  .F       7700.00000                 :Total Depth - Driller
TDL  .F       7704.00000                 :Total Depth - Logger
TLI  .F       1044.00000                 :Top Log Interval
HIDE .        BHC Sonic                  :Header Identifier
MATR .        SAND                       :Rock Matrix for Neutron Porosity Corrections
FNUM .           1.00000                 :Form Factor Numerator
FEXP .           2.00000                 :Form Factor Exponent
DFT  .        Gel and Chemical           :Drilling Fluid Type
DFPH .           8.50000                 :Drilling Fluid PH
MCSS .        Calculated                 :Mud Cake Sample Source
MFSS .        Calculated                 :Mud Filtrate Sample Source
FD   .G/C3       1.00000                 :Fluid Density
MSS  .        Flowline                   :Mud Sample Source
OS1  .        PEX AIT                    :Other Services Line 1
OS2  .                                   :Other Services Line 2
OS3  .                                   :Other Services Line 3
OS4  .                                   :Other Services Line 4
OS5  .                                   :Other Services Line 5
R1   .        This is the first run in hole :Remark Line 1
R2   .                                   :Remark Line 2
R3   .        Toolstring run as per tool sketch :Remark Line 3
R4   .                                   :Remark Line 4
R5   .        Matrix  Sandstone (2.65 g/cc) from TD to 7264' :Remark Line 5
R6   .                     Limestone (2.71 g/cc) from 7264' to Surface :Remark Line 6
R7   .                                   :Remark Line 7
R8   .        EDTC run for telemetry and not used for gamma ray :Remark Line 8
TCS  .        3 00                       :Time Circulation Stopped
TLAB .        11 40                      :Time Logger At Bottom
NMT  .        NOBARITE                   :HILT Nuclear Mud Type
EPD  .F         5276.000000              :Elevation of Permanent Datum above Mean Sea Level
APD  .F          16.000000               :Elevation of Depth Reference (LMF) above Permanent Datum
#-----------------------------------------------------------------------------
~CURVE INFORMATION
#MNEM.UNIT   API CODE                                  DESCRIPTION
#---- -----  --------                                  -----------------------
DEPT .F                                                :DEPTH (BOREHOLE) {F10.1}
AT10 .OHMM                                             :Array Induction Two Foot Resistivity A10 {F11.4}
AT20 .OHMM                                             :Array Induction Two Foot Resistivity A20 {F11.4}
AT30 .OHMM                                             :Array Induction Two Foot Resistivity A30 {F11.4}
AT60 .OHMM                                             :Array Induction Two Foot Resistivity A60 {F11.4}
AT90 .OHMM                                             :Array Induction Two Foot Resistivity A90 {F11.4}
DPHZ .CFCF                                             :HRDD Standard Resolution Density Porosity {F11.4}
DT   .US/F                                             :Delta-T {F11.4}
HCAL .IN                                               :HRCC Caliper Calibrated {F13.4}
GR   .GAPI                                             :Gamma-Ray {F11.4}
HCAL .IN                                               :HRCC Caliper Calibrated {F11.4}
HDRA .G/C3                                             :HRDD Density Correction {F11.4}
NPOR .CFCF                                             :Enhanced Thermal Neutron Porosity {F11.4}
PEFZ .                                                 :HRDD Standard Resolution Formation Photoelectric Factor {F11.4}
RHOZ .G/C3                                             :HRDD Standard Resolution Formation Density {F11.4}
SP   .MV                                               :SP Shifted {F11.4}
SPHI .CFCF                                             :Sonic Porosity {F11.4}
#-----------------------------------------------------------------------------
# 
#     DEPT       AT10       AT20       AT30       AT60       AT90       DPHZ        DT         HCAL         GR        HCAL       HDRA       NPOR       PEFZ       RHOZ        SP        SPHI
#
~A  
# ...
    1398.0     5.7390     6.0580     6.3180     6.7325     6.8397     0.2818   116.0841       8.4491    87.9476     8.4491     0.0154     0.3086     2.6647     2.2282   -20.8125     0.3687
    1398.5     5.8778     6.1764     6.4490     6.8656     6.9528     0.2806   114.9698       8.4709    87.2893     8.4709     0.0126     0.3119     2.6100     2.2302   -21.1250     0.3662
    1399.0     5.9499     6.2355     6.4964     6.9138     6.9985     0.2798   114.9191       8.4927    87.9466     8.4927     0.0222     0.3339     2.6266     2.2316   -22.8125     0.3661
    1399.5     5.9551     6.2218     6.4733     6.8765     6.9771     0.2754   115.3406       8.4709    86.7114     8.4709     0.0383     0.3049     2.6714     2.2391   -22.1875     0.3671
    1400.0     5.8483     6.1257     6.3763     6.7646     6.8619     0.2783   115.3903       8.4709    83.4199     8.4709     0.0398     0.3018     2.7010     2.2342   -22.2500     0.3672
    1400.5     5.7465     6.0299     6.2795     6.6716     6.7599     0.2797   115.8629       8.3837    81.4848     8.3837     0.0352     0.3172     2.6962     2.2318   -23.1250     0.3682
    1401.0     5.7367     6.0018     6.2173     6.6190     6.7023     0.2920   116.3389       8.3619    87.5987     8.3619     0.0188     0.3188     2.6742     2.2107   -23.5000     0.3693
    1401.5     5.9396     6.2268     6.4362     6.9068     6.9904     0.3003   116.1255       8.3401    87.2695     8.3401     0.0086     0.3458     2.6469     2.1965   -24.3750     0.3688
    1402.0     6.2111     6.5205     6.7648     7.2045     7.2909     0.3013   115.8531       8.3183    86.2821     8.3183     0.0019     0.3645     2.5849     2.1948   -24.8750     0.3682
    1402.5     6.3761     6.6915     6.9600     7.4098     7.4650     0.2990   115.4884       8.2747    82.1723     8.2747     0.0001     0.3556     2.5521     2.1987   -25.1875     0.3674
    1403.0     6.4538     6.7661     7.0170     7.4633     7.5425     0.2953   115.0959       8.2965    77.2351     8.2965     0.0015     0.3070     2.5195     2.2051   -25.1875     0.3665
    1403.5     6.5436     6.8512     7.1497     7.5770     7.7069     0.2998   115.2302       8.2965    79.8683     8.2965     0.0025     0.3273     2.5499     2.1974   -25.3125     0.3668
    1404.0     6.5934     6.8668     7.1454     7.6231     7.7314     0.3056   115.3310       8.3183    78.3376     8.3183     0.0034     0.3324     2.5807     2.1875   -25.1875     0.3670
    1404.5     6.5376     6.7944     7.0851     7.5459     7.6549     0.3082   115.2082       8.3183    83.1598     8.3183     0.0069     0.3471     2.6261     2.1830   -25.2500     0.3668
    1405.0     6.4517     6.7358     7.0100     7.4494     7.5487     0.3041   115.5726       8.2965    81.1208     8.2965     0.0157     0.3439     2.6697     2.1901   -24.8750     0.3676
    1405.5     6.3534     6.6066     6.8905     7.2920     7.3878     0.2961   115.8290       8.2965    88.6386     8.2965     0.0262     0.3547     2.6938     2.2037   -24.9375     0.3682
    1406.0     6.3265     6.5794     6.8422     7.2095     7.2816     0.3014   116.1256       8.2311    88.4245     8.2311     0.0248     0.3457     2.6982     2.1947   -25.1875     0.3688
    1406.5     6.3229     6.6674     6.9161     7.2615     7.3069     0.3054   116.9812       8.1657    88.8362     8.1657     0.0214     0.3888     2.6946     2.1877   -25.1875     0.3707
    1407.0     6.2989     6.6525     6.8928     7.2192     7.2512     0.3012   116.5627       8.1875    80.9484     8.1875     0.0227     0.3886     2.7009     2.1950   -24.3750     0.3698
    1407.5     6.2840     6.6567     6.8912     7.2609     7.2052     0.2890   116.1251       8.1875    78.6444     8.1875     0.0296     0.3940     2.7148     2.2158   -24.6250     0.3688
    1408.0     6.3277     6.6978     6.9373     7.3119     7.2731     0.2861   115.6455       8.2093    81.9383     8.2093     0.0290     0.3316     2.6941     2.2208   -24.5000     0.3677
    1408.5     6.3607     6.7212     7.0091     7.4858     7.2072     0.2940   114.6903       8.2311    82.9666     8.2311     0.0186     0.3755     2.6405     2.2072   -23.8750     0.3656
    1409.0     6.3872     6.7399     7.1025     7.5869     7.3619     0.2956   113.8600       8.2965    83.2554     8.2965     0.0082     0.3462     2.6013     2.2045   -21.2500     0.3637
    1409.5     6.3924     6.6549     7.0085     7.4828     7.3700     0.2774   107.0281       8.3619    79.6138     8.3619     0.0056     0.3308     2.6381     2.2356   -17.2500     0.3470
    1410.0     6.4109     6.6361     6.9641     7.4253     7.3376     0.2451   108.2821       8.4491    72.7177     8.4491     0.0354     0.2663     2.7611     2.2908   -13.5625     0.3503
    1410.5     5.5454     5.8897     6.1976     6.5805     6.5585     0.2352   110.3870       8.5580    80.2768     8.5580     0.0676     0.2310     2.8614     2.3079   -12.7500     0.3555
    1411.0     4.7122     4.9064     5.1078     5.3665     5.3738     0.2479   111.1032       8.7542    83.5683     8.7542     0.0884     0.3425     2.8704     2.2861   -12.7500     0.3572
    1411.5     4.4114     4.6245     4.8022     5.0279     5.0692     0.2679   116.4820       8.7760   100.4499     8.7760     0.0752     0.3517     2.8111     2.2518   -12.7500     0.3696
    1412.0     4.5045     4.7459     4.9075     5.1316     5.2036     0.2642   116.7690       8.7106    98.8558     8.7106     0.0646     0.3132     2.7961     2.2582   -12.6250     0.3702
    1412.5     4.5646     4.8148     4.9494     5.1550     5.2545     0.2629   115.3083       8.7760   104.0730     8.7760     0.0546     0.3120     2.8077     2.2604   -12.5625     0.3670
    1413.0     4.5801     4.8408     4.9541     5.1525     5.2610     0.2587   116.5259       8.8632    98.3086     8.8632     0.0518     0.3793     2.8008     2.2676   -12.6250     0.3697
    1413.5     4.5589     4.8228     4.9162     5.1034     5.2051     0.2596   116.7635       8.7978    94.6879     8.7978     0.0424     0.4048     2.7436     2.2660   -12.6250     0.3702
    1414.0     4.6201     4.8706     4.9808     5.1865     5.2698     0.2523   116.5796       8.7542    86.1792     8.7542     0.0324     0.3542     2.6911     2.2785   -12.8125     0.3698
    1414.5     4.8253     5.0785     5.1890     5.3852     5.4818     0.2455   115.3605       8.8196    79.9538     8.8196     0.0185     0.3670     2.6254     2.2901   -13.1250     0.3671
    1415.0     5.1576     5.4351     5.5677     5.8060     5.8861     0.2379   113.4553       8.7542    88.8408     8.7542     0.0084     0.3748     2.5780     2.3033   -13.4375     0.3628
    1415.5     5.5024     5.7988     5.9701     6.2406     6.2804     0.2362   111.3683       8.6670    95.4238     8.6670     0.0036     0.3492     2.5530     2.3062   -13.7500     0.3579
    1416.0     5.8440     6.1595     6.3709     6.6616     6.6882     0.2410   111.3911       8.6670    97.7146     8.6670     0.0017     0.3085     2.5628     2.2978   -14.5000     0.3579
    1416.5     5.9526     6.3011     6.5075     6.8533     6.8689     0.2484   111.3000       8.6670    97.4138     8.6670    -0.0001     0.3322     2.5630     2.2852   -14.8125     0.3577
    1417.0     5.8271     6.1726     6.3964     6.7516     6.7513     0.2529   111.6250       8.6452    97.7430     8.6452    -0.0010     0.2927     2.5949     2.2776   -14.2500     0.3585
    1417.5     5.7893     6.0646     6.2860     6.6245     6.5878     0.2583   111.9358       8.6670   102.8498     8.6670    -0.0028     0.3283     2.6501     2.2683   -14.3125     0.3592
    1418.0     5.8467     6.0790     6.3371     6.7139     6.7067     0.2627   111.8875       8.6888    97.5550     8.6888    -0.0034     0.3272     2.6889     2.2608   -14.6875     0.3591
    1418.5     5.9795     6.2634     6.5115     6.8981     6.8914     0.2626   111.9889       8.7106    98.2133     8.7106    -0.0024     0.3268     2.6726     2.2610   -15.3125     0.3593
    1419.0     6.0784     6.3928     6.6327     7.0116     7.0289     0.2580   111.6119       8.7324    98.7449     8.7324    -0.0006     0.2960     2.6239     2.2688   -15.5000     0.3585
