~VERSION INFORMATION
VERS.           2.0   :CWLS Log ASCII Standard - VERSION 2.0
WRAP.           NO    :One Line per depth step
PROD.  Schlumberger   :LAS Producer
PROG.  DLIS to ASCII 2.3                               :LAS Program name and version
CREA.        2012/03/06 09:37                          :LAS Creation date {YYYY/MM/DD hh:mm}
DLIS_CREA.  2012-Mar-04 13:45                          :DLIS Creation date and time {YYYY-MMM-DD hh:mm}
SOURCE.     BFN8-00160_Bear_Fornstrom_44-32_Main.DLIS  :DLIS File Name
FILE-ID.     AIT_SONIC_TLD_MCFL_029PUP                 :File Identification Number
#--------------------------------------------------
~WELL INFORMATION
#MNEM.UNIT      DATA             DESCRIPTION
#---- ------ --------------   -----------------------------
STRT .F      946.5           :START DEPTH     
STOP .F      7726.5          :STOP DEPTH     
STEP .F       0.5            :STEP     
NULL .          -999.25      :NULL VALUE
COMP .        Bear Oil & Gas, Inc.                     :COMPANY
WELL .        Fornstrom 44-32                          :WELL
FLD  .        Britty                                   :FIELD
LOC  .        Sec. 32, T16N, R60W                      :LOCATION
CNTY .        Laramie                                  :COUNTY
STAT .        Wyoming                                  :STATE
CTRY .                                                 :COUNTRY
API  .        49-021-20913-0000                        :API NUMBER
UWI  .                                                 :UNIQUE WELL ID
DATE .        04-Mar-2012                              :LOG DATE {DD-MMM-YYYY}
SRVC .        Schlumberger                             :SERVICE COMPANY
LATI .DEG                                              :LATITUDE
LONG .DEG                                              :LONGITUDE
GDAT .                                                 :GeoDetic Datum
SECT .        32                                       :Section
RANG .        60W                                      :Range
TOWN .        16N                                      :Township
#-----------------------------------------------------------------------------
~PARAMETER INFORMATION
#MNEM.UNIT    VALUE                      DESCRIPTION
#---- -----   --------------------       ------------------------
CN   .        Bear Oil & Gas  Inc.       :Company Name
WN   .        Fornstrom 44-32            :Well Name
FN   .        Britty                     :Field Name
FL   .        Sec. 32  T16N  R60W        :Field Location
FL1  .        SHL  760' FSL X 757' FEL SESE :Field Location Line 1
COUN .        Laramie                    :County or Rig Name
STAT .        Wyoming                    :State or Province
NATI .                                   :Nation
DATE .        4-Mar-2012                 :Date as Month-Day-Year
APIN .        49-021-20913-0000          :API Serial Number
SECT .        32                         :Section
TOWN .        16N                        :Township
RANG .        60W                        :Range
DMF  .        Kelly Bushing              :Drilling Measured From
LMF  .        Kelly Bushing              :Log Measured From
PDAT .        Ground Level               :Permanent Datum
ENGI .        Tim Hoffman                :Engineer's Name
WITN .        Terry Eittreim             :Witness's Name
LATI .                                   :Latitude
LONG .                                   :Longitude
LUL  .        Ft. Morgan  CO             :Logging Unit Location
LUN  .              2153                 :Logging Unit Number
RUN  .        1                          :Run Number
SON  .        BFN8-00160                 :Service Order Number
BHT  .DEGF     170.00000                 :Bottom Hole Temperature (used in calculations)
BS   .IN         7.87500                 :Bit Size
MDEN .G/C3       2.65000                 :Matrix Density
DFD  .LB/G       9.20000                 :Drilling Fluid Density
DFV  .S         68.00000                 :Drilling Fluid Viscosity
DFL  .C3         5.60000                 :Drilling Fluid Loss
RMFS .OHMM       1.84875                 :Resistivity of Mud Filtrate Sample
EKB  .F       5292.00000                 :Elevation of Kelly Bushing
EGL  .F       5276.00000                 :Elevation of Ground Level
BLI  .F       7696.00000                 :Bottom Log Interval
BSAL .                                   :Borehole Salinity
FLEV .F        300.00000                 :Fluid Level
MCST .DEGF      91.00000                 :Mud Cake Sample Temperature
MFST .DEGF      91.00000                 :Mud Filtrate Sample Temperature
MRT  .DEGF     170.00000                 :Maximum Recorded Temperature
MST  .DEGF      91.00000                 :Mud Sample Temperature
RMCS .OHMM       3.69750                 :Resistivity of Mud Cake Sample
RMS  .OHMM       2.46500                 :Resistivity of Mud Sample
RW   .OHMM       1.00000                 :Resistivity of Connate Water
TDD  .F       7700.00000                 :Total Depth - Driller
TDL  .F       7704.00000                 :Total Depth - Logger
TLI  .F       1044.00000                 :Top Log Interval
HIDE .        BHC Sonic                  :Header Identifier
MATR .        SAND                       :Rock Matrix for Neutron Porosity Corrections
FNUM .           1.00000                 :Form Factor Numerator
FEXP .           2.00000                 :Form Factor Exponent
DFT  .        Gel and Chemical           :Drilling Fluid Type
DFPH .           8.50000                 :Drilling Fluid PH
MCSS .        Calculated                 :Mud Cake Sample Source
MFSS .        Calculated                 :Mud Filtrate Sample Source
FD   .G/C3       1.00000                 :Fluid Density
MSS  .        Flowline                   :Mud Sample Source
OS1  .        PEX AIT                    :Other Services Line 1
OS2  .                                   :Other Services Line 2
OS3  .                                   :Other Services Line 3
OS4  .                                   :Other Services Line 4
OS5  .                                   :Other Services Line 5
R1   .        This is the first run in hole :Remark Line 1
R2   .                                   :Remark Line 2
R3   .        Toolstring run as per tool sketch :Remark Line 3
R4   .                                   :Remark Line 4
R5   .        Matrix  Sandstone (2.65 g/cc) from TD to 7264' :Remark Line 5
R6   .                     Limestone (2.71 g/cc) from 7264' to Surface :Remark Line 6
R7   .                                   :Remark Line 7
R8   .        EDTC run for telemetry and not used for gamma ray :Remark Line 8
TCS  .        3 00                       :Time Circulation Stopped
TLAB .        11 40                      :Time Logger At Bottom
NMT  .        NOBARITE                   :HILT Nuclear Mud Type
EPD  .F         5276.000000              :Elevation of Permanent Datum above Mean Sea Level
APD  .F          16.000000               :Elevation of Depth Reference (LMF) above Permanent Datum
#-----------------------------------------------------------------------------
~CURVE INFORMATION
#MNEM.UNIT   API CODE                                  DESCRIPTION
#---- -----  --------                                  -----------------------
DEPT .F                                                :DEPTH (BOREHOLE) {F10.1}
AT10 .OHMM                                             :Array Induction Two Foot Resistivity A10 {F11.4}
AT20 .OHMM                                             :Array Induction Two Foot Resistivity A20 {F11.4}
AT30 .OHMM                                             :Array Induction Two Foot Resistivity A30 {F11.4}
AT60 .OHMM                                             :Array Induction Two Foot Resistivity A60 {F11.4}
AT90 .OHMM                                             :Array Induction Two Foot Resistivity A90 {F11.4}
DPHZ .CFCF                                             :HRDD Standard Resolution Density Porosity {F11.4}
DT   .US/F                                             :Delta-T {F11.4}
HCAL .IN                                               :HRCC Caliper Calibrated {F13.4}
GR   .GAPI                                             :Gamma-Ray {F11.4}
HCAL .IN                                               :HRCC Caliper Calibrated {F11.4}
HDRA .G/C3                                             :HRDD Density Correction {F11.4}
NPOR .CFCF                                             :Enhanced Thermal Neutron Porosity {F11.4}
PEFZ .                                                 :HRDD Standard Resolution Formation Photoelectric Factor {F11.4}
RHOZ .G/C3                                             :HRDD Standard Resolution Formation Density {F11.4}
SP   .MV                                               :SP Shifted {F11.4}
SPHI .CFCF                                             :Sonic Porosity {F11.4}
#-----------------------------------------------------------------------------
# 
#     DEPT       AT10       AT20       AT30       AT60       AT90       DPHZ        DT         HCAL         GR        HCAL       HDRA       NPOR       PEFZ       RHOZ        SP        SPHI
#
~A  
# ...
    7697.5     2.4559     2.4064     2.2789     2.2254     2.0360     0.2776    79.9289       3.8505   137.8304     3.8505     0.4626     0.2131     1.6403     2.1919     3.3125     0.1871
    7698.0     2.3396     2.2825     2.1614     2.1255     1.9368     0.2776    79.9333       3.8505   137.8304     3.8505     0.4626     0.2131     1.6403     2.1919     3.4375     0.1871
    7698.5     2.2450     2.1700     2.0579     2.0172     1.8716     0.2776    79.9269       3.8505   137.8304     3.8505     0.4626     0.2131     1.6403     2.1919     3.6875     0.1871
    7699.0     2.2280     2.1079     2.0087     1.9688     1.8512     0.2776    79.9300       3.8505   137.8304     3.8505     0.4626     0.2131     1.6403     2.1919     4.0000     0.1871
    7699.5     2.2477     2.0668     1.9802     1.9439     1.8608     0.2776    79.9275       3.8505   137.8304     3.8505     0.4626     0.2131     1.6403     2.1919     3.8125     0.1871
    7700.0     2.2833     2.0603     1.9783     1.9465     1.9257     0.2776    79.9282       3.8505   137.8304     3.8505     0.4626     0.2131     1.6403     2.1919     4.1875     0.1871
    7700.5     2.3017     2.0863     2.0353     2.0017     1.9708     0.2776    79.9197       3.8505   137.8304     3.8505     0.4626     0.2131     1.6403     2.1919     4.0000     0.1871
    7701.0     2.3332     2.1122     2.0427     2.0391     2.0312     0.2776    79.9262       3.8505   137.8304     3.8505     0.4626     0.2131     1.6403     2.1919     3.8125     0.1871
    7701.5     2.3368     2.1195     2.0713     2.0844     2.0795     0.2776    79.9200       3.8505   137.8304     3.8505     0.4626     0.2131     1.6403     2.1919     4.0000     0.1871
    7702.0     2.3346     2.1398     2.0939     2.1214     2.1093     0.2776    79.9195       3.8505   137.8304     3.8505     0.4626     0.2131     1.6403     2.1919     3.7500     0.1871
    7702.5     2.3298     2.1456     2.0973     2.1438     2.1122     0.2776    79.9193       3.8505   137.8304     3.8505     0.4626     0.2131     1.6403     2.1919     3.8125     0.1871
    7703.0     2.3268     2.1469     2.0928     2.1534     2.0982     0.2776    79.9229       3.8505   137.8304     3.8505     0.4626     0.2131     1.6403     2.1919     3.6250     0.1871
    7703.5     2.3249     2.1486     2.0913     2.1540     2.0988     0.2776    79.9263       3.8505   137.8304     3.8505     0.4626     0.2131     1.6403     2.1919     4.0000     0.1871
    7704.0     2.3224     2.1492     2.0924     2.1492     2.0904     0.2776    79.9212       3.8505   137.8304     3.8505     0.4626     0.2131     1.6403     2.1919     3.3125     0.1871
    7704.5     2.3231     2.1497     2.0911     2.1465     2.0841     0.2776    79.9222       3.8505   137.8304     3.8505     0.4626     0.2131     1.6403     2.1919     3.3125     0.1871
    7705.0     2.3247     2.1492     2.0902     2.1440     2.0818     0.2776    79.9215       3.8505   137.8304     3.8505     0.4626     0.2131     1.6403     2.1919     2.9375     0.1871
    7705.5     2.3265     2.1496     2.0893     2.1422     2.0803     0.2776    79.9199       3.8505   137.8304     3.8505     0.4626     0.2131     1.6403     2.1919     3.1250     0.1871
    7706.0     2.3265     2.1475     2.0901     2.1423     2.0818     0.2776    79.9167       3.8505   137.8304     3.8505     0.4626     0.2131     1.6403     2.1919     3.3125     0.1870
    7706.5     2.3276     2.1476     2.0913     2.1434     2.0835     0.2776    79.9167       3.8505   137.8304     3.8505     0.4626     0.2131     1.6403     2.1919     3.3750     0.1870
    7707.0     2.3273     2.1476     2.0916     2.1456     2.0849     0.2776    79.9167       3.8505   137.8304     3.8505     0.4626     0.2131     1.6403     2.1919     3.4375     0.1870
    7707.5     2.3271     2.1475     2.0924     2.1479     2.0862     0.2776    79.9167       3.8505   137.8304     3.8505     0.4626     0.2131     1.6403     2.1919     3.0625     0.1870
    7708.0     2.3256     2.1456     2.0917     2.1486     2.0860     0.2776    79.9167       3.8505   137.8304     3.8505     0.4626     0.2131     1.6403     2.1919     2.9375     0.1870
    7708.5     2.3258     2.1446     2.0913     2.1493     2.0860     0.2776    79.9167       3.8505   137.8304     3.8505     0.4626     0.2131     1.6403     2.1919     2.7500     0.1870
    7709.0     2.3270     2.1466     2.0928     2.1500     2.0873     0.2776    79.9167       3.8505   137.8304     3.8505     0.4626     0.2131     1.6403     2.1919     0.7500     0.1870
    7709.5     2.3268     2.1464     2.0932     2.1502     2.0882     0.2776    79.9167       3.8505   137.8304     3.8505     0.4626     0.2131     1.6403     2.1919     2.6250     0.1870
    7710.0     2.3269     2.1467     2.0941     2.1496     2.0890     0.2776    79.9167       3.8505   137.8304     3.8505     0.4626     0.2131     1.6403     2.1919     2.3750     0.1870
    7710.5     2.3276     2.1480     2.0956     2.1496     2.0889     0.2776    79.9167       3.8505   137.8304     3.8505     0.4626     0.2131     1.6403     2.1919     2.3125     0.1870
    7711.0     2.3280     2.1471     2.0952     2.1509     2.0911     0.2776    79.9167       3.8505   137.8304     3.8505     0.4626     0.2131     1.6403     2.1919     2.0625     0.1870
    7711.5     2.3262     2.1449     2.0931     2.1481     2.0895     0.2776    79.9167       3.8505   137.8304     3.8505     0.4626     0.2131     1.6403     2.1919     2.0000     0.1870
    7712.0     2.3266     2.1430     2.0921     2.1473     2.0891     0.2776    79.9167       3.8505   137.8304     3.8505     0.4626     0.2131     1.6403     2.1919     1.9375     0.1870
    7712.5     2.3273     2.1444     2.0935     2.1488     2.0913     0.2776    79.9167       3.8505   137.8304     3.8505     0.4626     0.2131     1.6403     2.1919     1.9375     0.1870
    7713.0     2.3276     2.1463     2.0941     2.1476     2.0920     0.2776    79.9167       3.8505   137.8304     3.8505     0.4626     0.2131     1.6403     2.1919     1.6875     0.1870
    7713.5     2.3288     2.1473     2.0962     2.1502     2.0955     0.2776    79.9167       3.8505   137.8304     3.8505     0.4626     0.2131     1.6403     2.1919     1.3125     0.1870
    7714.0     2.3300     2.1507     2.0996     2.1523     2.0998     0.2776    79.9167       3.8505   137.8304     3.8505     0.4626     0.2131     1.6403     2.1919     1.3125     0.1870
    7714.5     2.3290     2.1475     2.0960     2.1489     2.0974     0.2776    79.9167       3.8505   137.8304     3.8505     0.4626     0.2131     1.6403     2.1919     1.0000     0.1870
    7715.0     2.3284     2.1452     2.0941     2.1478     2.0970     0.2776    79.9167       3.8505   137.8304     3.8505     0.4626     0.2131     1.6403     2.1919     1.3750     0.1870
    7715.5     2.3297     2.1456     2.0940     2.1493     2.0981     0.2776    79.9167       3.8505   137.8304     3.8505     0.4626     0.2131     1.6403     2.1919     1.2500     0.1870
    7716.0     2.3298     2.1467     2.0947     2.1484     2.0989     0.2776    79.9167       3.8505   137.8304     3.8505     0.4626     0.2131     1.6403     2.1919     1.3125     0.1870
    7716.5     2.3297     2.1469     2.0959     2.1500     2.1009     0.2776    79.9167       3.8505   137.8304     3.8505     0.4626     0.2131     1.6403     2.1919     1.2500     0.1870
    7717.0     2.3305     2.1481     2.0959     2.1488     2.1013     0.2776    79.9167       3.8505   137.8304     3.8505     0.4626     0.2131     1.6403     2.1919     1.0000     0.1870
    7717.5     2.3307     2.1488     2.0944     2.1483     2.1010     0.2776    79.9167       3.8505   137.8304     3.8505     0.4626     0.2131     1.6403     2.1919     0.8750     0.1870
    7718.0     2.3308     2.1480     2.0955     2.1487     2.1020     0.2776    79.9167       3.8505   137.8304     3.8505     0.4626     0.2131     1.6403     2.1919     1.0625     0.1870
    7718.5     2.3318     2.1485     2.0959     2.1481     2.1022     0.2776    79.9167       3.8505   137.8304     3.8505     0.4626     0.2131     1.6403     2.1919     0.9375     0.1870
