~VERSION INFORMATION
VERS.           2.0   :CWLS Log ASCII Standard - VERSION 2.0
WRAP.           NO    :One Line per depth step
PROD.  Schlumberger   :LAS Producer
PROG.  DLIS to ASCII 2.3                               :LAS Program name and version
CREA.        2012/03/06 09:37                          :LAS Creation date {YYYY/MM/DD hh:mm}
DLIS_CREA.  2012-Mar-04 13:45                          :DLIS Creation date and time {YYYY-MMM-DD hh:mm}
SOURCE.     BFN8-00160_Bear_Fornstrom_44-32_Main.DLIS  :DLIS File Name
FILE-ID.     AIT_SONIC_TLD_MCFL_029PUP                 :File Identification Number
#--------------------------------------------------
~WELL INFORMATION
#MNEM.UNIT      DATA             DESCRIPTION
#---- ------ --------------   -----------------------------
STRT .F      946.5           :START DEPTH     
STOP .F      7726.5          :STOP DEPTH     
STEP .F       0.5            :STEP     
NULL .          -999.25      :NULL VALUE
COMP .        Bear Oil & Gas, Inc.                     :COMPANY
WELL .        Fornstrom 44-32                          :WELL
FLD  .        Britty                                   :FIELD
LOC  .        Sec. 32, T16N, R60W                      :LOCATION
CNTY .        Laramie                                  :COUNTY
STAT .        Wyoming                                  :STATE
CTRY .                                                 :COUNTRY
API  .        49-021-20913-0000                        :API NUMBER
UWI  .                                                 :UNIQUE WELL ID
DATE .        04-Mar-2012                              :LOG DATE {DD-MMM-YYYY}
SRVC .        Schlumberger                             :SERVICE COMPANY
LATI .DEG                                              :LATITUDE
LONG .DEG                                              :LONGITUDE
GDAT .                                                 :GeoDetic Datum
SECT .        32                                       :Section
RANG .        60W                                      :Range
TOWN .        16N                                      :Township
#-----------------------------------------------------------------------------
~PARAMETER INFORMATION
#MNEM.UNIT    VALUE                      DESCRIPTION
#---- -----   --------------------       ------------------------
CN   .        Bear Oil & Gas  Inc.       :Company Name
WN   .        Fornstrom 44-32            :Well Name
FN   .        Britty                     :Field Name
FL   .        Sec. 32  T16N  R60W        :Field Location
FL1  .        SHL  760' FSL X 757' FEL SESE :Field Location Line 1
COUN .        Laramie                    :County or Rig Name
STAT .        Wyoming                    :State or Province
NATI .                                   :Nation
DATE .        4-Mar-2012                 :Date as Month-Day-Year
APIN .        49-021-20913-0000          :API Serial Number
SECT .        32                         :Section
TOWN .        16N                        :Township
RANG .        60W                        :Range
DMF  .        Kelly Bushing              :Drilling Measured From
LMF  .        Kelly Bushing              :Log Measured From
PDAT .        Ground Level               :Permanent Datum
ENGI .        Tim Hoffman                :Engineer's Name
WITN .        Terry Eittreim             :Witness's Name
LATI .                                   :Latitude
LONG .                                   :Longitude
LUL  .        Ft. Morgan  CO             :Logging Unit Location
LUN  .              2153                 :Logging Unit Number
RUN  .        1                          :Run Number
SON  .        BFN8-00160                 :Service Order Number
BHT  .DEGF     170.00000                 :Bottom Hole Temperature (used in calculations)
BS   .IN         7.87500                 :Bit Size
MDEN .G/C3       2.65000                 :Matrix Density
DFD  .LB/G       9.20000                 :Drilling Fluid Density
DFV  .S         68.00000                 :Drilling Fluid Viscosity
DFL  .C3         5.60000                 :Drilling Fluid Loss
RMFS .OHMM       1.84875                 :Resistivity of Mud Filtrate Sample
EKB  .F       5292.00000                 :Elevation of Kelly Bushing
EGL  .F       5276.00000                 :Elevation of Ground Level
BLI  .F       7696.00000                 :Bottom Log Interval
BSAL .                                   :Borehole Salinity
FLEV .F        300.00000                 :Fluid Level
MCST .DEGF      91.00000                 :Mud Cake Sample Temperature
MFST .DEGF      91.00000                 :Mud Filtrate Sample Temperature
MRT  .DEGF     170.00000                 :Maximum Recorded Temperature
MST  .DEGF      91.00000                 :Mud Sample Temperature
RMCS .OHMM       3.69750                 :Resistivity of Mud Cake Sample
RMS  .OHMM       2.46500                 :Resistivity of Mud Sample
RW   .OHMM       1.00000                 :Resistivity of Connate Water
TDD  .F       7700.00000                 :Total Depth - Driller
TDL  .F       7704.00000                 :Total Depth - Logger
TLI  .F       1044.00000                 :Top Log Interval
HIDE .        BHC Sonic                  :Header Identifier
MATR .        SAND                       :Rock Matrix for Neutron Porosity Corrections
FNUM .           1.00000                 :Form Factor Numerator
FEXP .           2.00000                 :Form Factor Exponent
DFT  .        Gel and Chemical           :Drilling Fluid Type
DFPH .           8.50000                 :Drilling Fluid PH
MCSS .        Calculated                 :Mud Cake Sample Source
MFSS .        Calculated                 :Mud Filtrate Sample Source
FD   .G/C3       1.00000                 :Fluid Density
MSS  .        Flowline                   :Mud Sample Source
OS1  .        PEX AIT                    :Other Services Line 1
OS2  .                                   :Other Services Line 2
OS3  .                                   :Other Services Line 3
OS4  .                                   :Other Services Line 4
OS5  .                                   :Other Services Line 5
R1   .        This is the first run in hole :Remark Line 1
R2   .                                   :Remark Line 2
R3   .        Toolstring run as per tool sketch :Remark Line 3
R4   .                                   :Remark Line 4
R5   .        Matrix  Sandstone (2.65 g/cc) from TD to 7264' :Remark Line 5
R6   .                     Limestone (2.71 g/cc) from 7264' to Surface :Remark Line 6
R7   .                                   :Remark Line 7
R8   .        EDTC run for telemetry and not used for gamma ray :Remark Line 8
TCS  .        3 00                       :Time Circulation Stopped
TLAB .        11 40                      :Time Logger At Bottom
NMT  .        NOBARITE                   :HILT Nuclear Mud Type
EPD  .F         5276.000000              :Elevation of Permanent Datum above Mean Sea Level
APD  .F          16.000000               :Elevation of Depth Reference (LMF) above Permanent Datum
#-----------------------------------------------------------------------------
~CURVE INFORMATION
#MNEM.UNIT   API CODE                                  DESCRIPTION
#---- -----  --------                                  -----------------------
DEPT .F                                                :DEPTH (BOREHOLE) {F10.1}
AT10 .OHMM                                             :Array Induction Two Foot Resistivity A10 {F11.4}
AT20 .OHMM                                             :Array Induction Two Foot Resistivity A20 {F11.4}
AT30 .OHMM                                             :Array Induction Two Foot Resistivity A30 {F11.4}
AT60 .OHMM                                             :Array Induction Two Foot Resistivity A60 {F11.4}
AT90 .OHMM                                             :Array Induction Two Foot Resistivity A90 {F11.4}
DPHZ .CFCF                                             :HRDD Standard Resolution Density Porosity {F11.4}
DT   .US/F                                             :Delta-T {F11.4}
HCAL .IN                                               :HRCC Caliper Calibrated {F13.4}
GR   .GAPI                                             :Gamma-Ray {F11.4}
HCAL .IN                                               :HRCC Caliper Calibrated {F11.4}
HDRA .G/C3                                             :HRDD Density Correction {F11.4}
NPOR .CFCF                                             :Enhanced Thermal Neutron Porosity {F11.4}
PEFZ .                                                 :HRDD Standard Resolution Formation Photoelectric Factor {F11.4}
RHOZ .G/C3                                             :HRDD Standard Resolution Formation Density {F11.4}
SP   .MV                                               :SP Shifted {F11.4}
SPHI .CFCF                                             :Sonic Porosity {F11.4}
#-----------------------------------------------------------------------------
# 
#     DEPT       AT10       AT20       AT30       AT60       AT90       DPHZ        DT         HCAL         GR        HCAL       HDRA       NPOR       PEFZ       RHOZ        SP        SPHI
#
~A  
# ...
    6794.5    11.4314    10.7637    10.4827     9.7618     9.6701     0.1281    70.0878       7.8388    63.7333     7.8388     0.0043     0.1098     4.9670     2.4909   -25.0000     0.2005
    6795.0    11.9207    11.0155    10.7349    10.0885    10.0163     0.1395    72.6085       7.8170    81.7829     7.8170     0.0037     0.1618     4.9545     2.4715   -23.6875     0.2153
    6795.5    11.2466    10.6580    10.4703     9.7690     9.7394     0.1489    74.5908       7.8824    86.9348     7.8824     0.0010     0.1751     4.9862     2.4554   -22.9375     0.2262
    6796.0    10.7031    10.1062     9.9636     9.3523     9.3749     0.1461    74.6724       7.8606    78.9394     7.8606    -0.0001     0.1588     4.9851     2.4602   -24.5000     0.2266
    6796.5    10.2339     9.6809     9.5046     8.8764     8.9294     0.1359    70.5667       7.8824    60.4592     7.8824     0.0010     0.1370     5.0168     2.4776   -27.4375     0.2034
    6797.0    10.2540     9.8757     9.6740     9.1080     9.0537     0.1100    67.7529       7.8170    50.3318     7.8170     0.0179     0.1142     5.0636     2.5218   -28.8750     0.1859
    6797.5    10.2030     9.9322     9.7581     9.1346     9.0545     0.1067    68.2802       7.8388    51.3811     7.8388     0.0184     0.0992     5.0736     2.5276   -26.6875     0.1893
    6798.0     9.9086     9.5841     9.3954     8.8956     8.8154     0.1021    70.1124       7.7952    68.7592     7.7952     0.0240     0.1270     5.0656     2.5354   -22.8125     0.2007
    6798.5    10.2726     9.8900     9.6061     9.2856     9.0632     0.1105    70.8005       7.8170    79.4701     7.8170     0.0169     0.1624     5.0254     2.5211   -20.1875     0.2048
    6799.0    11.8772    11.3974    11.2386    10.5804    10.3758     0.1114    74.2554       7.7952    95.1170     7.7952     0.0236     0.1409     5.0420     2.5196   -21.0625     0.2244
    6799.5    13.7009    12.8510    12.4896    11.7595    11.5444     0.1325    77.9722       7.8170   115.7897     7.8170     0.0203     0.1388     5.0047     2.4834   -19.3125     0.2435
    6800.0    12.7904    12.4457    12.1618    11.4018    11.3414     0.1573    80.9686       7.7952   143.8384     7.7952     0.0140     0.2177     4.8975     2.4410   -16.1875     0.2576
    6800.5    11.5800    10.9708    10.7990    10.1862    10.1698     0.1718    84.6153       7.8170   149.5823     7.8170     0.0072     0.2513     4.8066     2.4162   -14.1250     0.2734
    6801.0    10.4771    10.0351     9.9260     9.4774     9.4306     0.1677    82.2464       7.7952   123.9712     7.7952     0.0039     0.2246     4.8233     2.4232   -16.2500     0.2633
    6801.5    11.3959    10.6214    10.4772     9.9480     9.9303     0.1597    76.4281       7.8170    96.7500     7.8170     0.0017     0.1573     4.9423     2.4369   -20.0000     0.2357
    6802.0    11.9941    11.5787    11.3497    10.6730    10.6233     0.1484    74.3863       7.8170    83.9689     7.8170     0.0019     0.1004     4.9876     2.4563   -21.8750     0.2251
    6802.5    12.0892    11.7771    11.5591    10.8957    10.8183     0.1471    71.1765       7.8061    88.6721     7.8061     0.0004     0.1288     4.9853     2.4585   -21.5625     0.2070
    6803.0    11.8083    11.5128    11.2568    10.6266    10.4748     0.1491    72.6162       7.7734    92.1876     7.7734    -0.0010     0.1513     4.9318     2.4551   -21.7500     0.2153
    6803.5    11.6733    11.2670    10.9758    10.3757    10.2343     0.1576    74.0403       7.8170    94.7210     7.8170    -0.0037     0.1382     4.9535     2.4406   -22.1875     0.2232
    6804.0    11.1264    11.1236    10.8254    10.1648     9.9977     0.1618    74.9725       7.7952    99.3802     7.7952    -0.0057     0.1625     5.0223     2.4333   -20.5625     0.2282
    6804.5    10.6288    10.4063    10.0554     9.6054     9.4512     0.1604    74.5666       7.8170   101.7437     7.8170    -0.0068     0.1682     5.0969     2.4357   -19.7500     0.2260
    6805.0    10.8249    10.4897    10.0716     9.6579     9.5172     0.1557    75.2050       7.7952   104.1754     7.7952    -0.0057     0.1568     5.1293     2.4437   -20.2500     0.2294
    6805.5    12.1868    11.9849    11.4642    10.8721    10.7672     0.1461    75.9821       7.7952   102.5361     7.7952    -0.0018     0.1548     5.0420     2.4602   -20.7500     0.2335
    6806.0    13.6493    13.3744    12.9820    12.5906    12.3601     0.1375    71.6701       7.7952   100.1726     7.7952     0.0011     0.1597     4.9573     2.4749   -20.9375     0.2099
    6806.5    13.8932    13.7491    13.2841    12.5303    12.5691     0.1256    70.7039       7.7952    86.4890     7.7952     0.0028     0.1268     4.9025     2.4953   -21.3750     0.2042
    6807.0    13.7610    13.5324    12.9583    12.3260    12.3875     0.1219    71.9666       7.7734    86.6886     7.7734     0.0028     0.0997     4.9371     2.5016   -21.0625     0.2116
    6807.5    13.9428    13.6948    13.1858    12.3064    12.5023     0.1239    72.4775       7.8170   105.9311     7.8170     0.0031     0.1449     4.9218     2.4982   -19.0000     0.2145
    6808.0    14.7069    14.3127    13.3765    12.4292    12.4896     0.1326    73.8206       7.8061   125.1681     7.8061     0.0026     0.1896     4.8686     2.4833   -16.3750     0.2220
    6808.5    14.1678    13.8549    12.8559    11.7680    11.9132     0.1371    76.5166       7.8170   130.4143     7.8170     0.0023     0.1778     4.7723     2.4756   -15.5000     0.2362
    6809.0    12.8147    12.8094    11.7333    10.9184    10.7861     0.1402    77.6170       7.8061   124.5410     7.8061     0.0019     0.1481     4.7248     2.4703   -13.5625     0.2417
    6809.5    11.6153    11.0124    10.5860     9.9295     9.7793     0.1433    76.4429       7.7843   138.6372     7.7843     0.0017     0.1649     4.7480     2.4650   -10.4375     0.2358
    6810.0    12.5121    12.0373    11.1964    10.6794    10.1483     0.1461    77.6637       7.7843   157.6612     7.7843     0.0011     0.1806     4.8381     2.4601    -8.5000     0.2419
    6810.5    16.7273    15.2988    14.2737    12.9552    11.9432     0.1437    76.4447       7.7952   169.9360     7.7952     0.0026     0.1537     4.9458     2.4643    -6.9375     0.2358
    6811.0    16.9533    15.6465    14.5575    12.7835    11.8287     0.1425    77.7552       7.7952   185.8692     7.7952     0.0076     0.1510     5.0588     2.4664    -5.6250     0.2424
    6811.5    10.0545     9.9056     9.3333     8.3882     8.1741     0.1342    81.7518       7.8279   213.7835     7.8279     0.0217     0.1647     5.0342     2.4805    -3.1875     0.2611
    6812.0     5.6096     5.5660     5.2784     4.9013     4.6933     0.1213    82.1978       7.7952   220.8382     7.7952     0.0351     0.2185     4.8789     2.5026     0.1875     0.2631
    6812.5     4.0164     3.8996     3.7268     3.5417     3.4826     0.1054    82.5844       7.8279   193.0714     7.8279     0.0356     0.2338     4.6181     2.5298     0.9375     0.2648
    6813.0     4.0649     4.1818     4.1133     3.9268     3.8327     0.0877    77.6584       7.8388   127.5325     7.8388     0.0257     0.1749     4.4906     2.5600     0.6875     0.2419
    6813.5     6.0414     5.7193     5.3363     5.0519     4.8874     0.0743    69.3257       7.8170    78.8549     7.8170     0.0143     0.1349     4.5269     2.5830    -2.1875     0.1959
    6814.0     8.3013     8.1589     7.6873     7.0692     6.8396     0.0662    65.8841       7.7952    45.7403     7.7952     0.0094     0.0815     4.6390     2.5969    -6.1875     0.1734
    6814.5    11.8395    10.4243     9.6878     8.8360     8.5205     0.0684    63.0498       7.8061    37.7535     7.8061     0.0053     0.0670     4.6835     2.5930    -6.6875     0.1532
    6815.0     9.1078     8.6305     8.1586     7.6010     7.3076     0.0759    65.9678       7.8170    43.8597     7.8170     0.0009     0.0736     4.6599     2.5802    -5.3125     0.1740
    6815.5     7.3043     6.9005     6.7138     6.3269     6.1281     0.0776    67.9002       7.8388    54.2990     7.8388    -0.0001     0.1120     4.6027     2.5774    -1.3750     0.1869
