~VERSION INFORMATION
VERS.           2.0   :CWLS Log ASCII Standard - VERSION 2.0
WRAP.           NO    :One Line per depth step
PROD.  Schlumberger   :LAS Producer
PROG.  DLIS to ASCII 2.3                               :LAS Program name and version
CREA.        2012/03/06 09:37                          :LAS Creation date {YYYY/MM/DD hh:mm}
DLIS_CREA.  2012-Mar-04 13:45                          :DLIS Creation date and time {YYYY-MMM-DD hh:mm}
SOURCE.     BFN8-00160_Bear_Fornstrom_44-32_Main.DLIS  :DLIS File Name
FILE-ID.     AIT_SONIC_TLD_MCFL_029PUP                 :File Identification Number
#--------------------------------------------------
~WELL INFORMATION
#MNEM.UNIT      DATA             DESCRIPTION
#---- ------ --------------   -----------------------------
STRT .F      946.5           :START DEPTH     
STOP .F      7726.5          :STOP DEPTH     
STEP .F       0.5            :STEP     
NULL .          -999.25      :NULL VALUE
COMP .        Bear Oil & Gas, Inc.                     :COMPANY
WELL .        Fornstrom 44-32                          :WELL
FLD  .        Britty                                   :FIELD
LOC  .        Sec. 32, T16N, R60W                      :LOCATION
CNTY .        Laramie                                  :COUNTY
STAT .        Wyoming                                  :STATE
CTRY .                                                 :COUNTRY
API  .        49-021-20913-0000                        :API NUMBER
UWI  .                                                 :UNIQUE WELL ID
DATE .        04-Mar-2012                              :LOG DATE {DD-MMM-YYYY}
SRVC .        Schlumberger                             :SERVICE COMPANY
LATI .DEG                                              :LATITUDE
LONG .DEG                                              :LONGITUDE
GDAT .                                                 :GeoDetic Datum
SECT .        32                                       :Section
RANG .        60W                                      :Range
TOWN .        16N                                      :Township
#-----------------------------------------------------------------------------
~PARAMETER INFORMATION
#MNEM.UNIT    VALUE                      DESCRIPTION
#---- -----   --------------------       ------------------------
CN   .        Bear Oil & Gas  Inc.       :Company Name
WN   .        Fornstrom 44-32            :Well Name
FN   .        Britty                     :Field Name
FL   .        Sec. 32  T16N  R60W        :Field Location
FL1  .        SHL  760' FSL X 757' FEL SESE :Field Location Line 1
COUN .        Laramie                    :County or Rig Name
STAT .        Wyoming                    :State or Province
NATI .                                   :Nation
DATE .        4-Mar-2012                 :Date as Month-Day-Year
APIN .        49-021-20913-0000          :API Serial Number
SECT .        32                         :Section
TOWN .        16N                        :Township
RANG .        60W                        :Range
DMF  .        Kelly Bushing              :Drilling Measured From
LMF  .        Kelly Bushing              :Log Measured From
PDAT .        Ground Level               :Permanent Datum
ENGI .        Tim Hoffman                :Engineer's Name
WITN .        Terry Eittreim             :Witness's Name
LATI .                                   :Latitude
LONG .                                   :Longitude
LUL  .        Ft. Morgan  CO             :Logging Unit Location
LUN  .              2153                 :Logging Unit Number
RUN  .        1                          :Run Number
SON  .        BFN8-00160                 :Service Order Number
BHT  .DEGF     170.00000                 :Bottom Hole Temperature (used in calculations)
BS   .IN         7.87500                 :Bit Size
MDEN .G/C3       2.65000                 :Matrix Density
DFD  .LB/G       9.20000                 :Drilling Fluid Density
DFV  .S         68.00000                 :Drilling Fluid Viscosity
DFL  .C3         5.60000                 :Drilling Fluid Loss
RMFS .OHMM       1.84875                 :Resistivity of Mud Filtrate Sample
EKB  .F       5292.00000                 :Elevation of Kelly Bushing
EGL  .F       5276.00000                 :Elevation of Ground Level
BLI  .F       7696.00000                 :Bottom Log Interval
BSAL .                                   :Borehole Salinity
FLEV .F        300.00000                 :Fluid Level
MCST .DEGF      91.00000                 :Mud Cake Sample Temperature
MFST .DEGF      91.00000                 :Mud Filtrate Sample Temperature
MRT  .DEGF     170.00000                 :Maximum Recorded Temperature
MST  .DEGF      91.00000                 :Mud Sample Temperature
RMCS .OHMM       3.69750                 :Resistivity of Mud Cake Sample
RMS  .OHMM       2.46500                 :Resistivity of Mud Sample
RW   .OHMM       1.00000                 :Resistivity of Connate Water
TDD  .F       7700.00000                 :Total Depth - Driller
TDL  .F       7704.00000                 :Total Depth - Logger
TLI  .F       1044.00000                 :Top Log Interval
HIDE .        BHC Sonic                  :Header Identifier
MATR .        SAND                       :Rock Matrix for Neutron Porosity Corrections
FNUM .           1.00000                 :Form Factor Numerator
FEXP .           2.00000                 :Form Factor Exponent
DFT  .        Gel and Chemical           :Drilling Fluid Type
DFPH .           8.50000                 :Drilling Fluid PH
MCSS .        Calculated                 :Mud Cake Sample Source
MFSS .        Calculated                 :Mud Filtrate Sample Source
FD   .G/C3       1.00000                 :Fluid Density
MSS  .        Flowline                   :Mud Sample Source
OS1  .        PEX AIT                    :Other Services Line 1
OS2  .                                   :Other Services Line 2
OS3  .                                   :Other Services Line 3
OS4  .                                   :Other Services Line 4
OS5  .                                   :Other Services Line 5
R1   .        This is the first run in hole :Remark Line 1
R2   .                                   :Remark Line 2
R3   .        Toolstring run as per tool sketch :Remark Line 3
R4   .                                   :Remark Line 4
R5   .        Matrix  Sandstone (2.65 g/cc) from TD to 7264' :Remark Line 5
R6   .                     Limestone (2.71 g/cc) from 7264' to Surface :Remark Line 6
R7   .                                   :Remark Line 7
R8   .        EDTC run for telemetry and not used for gamma ray :Remark Line 8
TCS  .        3 00                       :Time Circulation Stopped
TLAB .        11 40                      :Time Logger At Bottom
NMT  .        NOBARITE                   :HILT Nuclear Mud Type
EPD  .F         5276.000000              :Elevation of Permanent Datum above Mean Sea Level
APD  .F          16.000000               :Elevation of Depth Reference (LMF) above Permanent Datum
#-----------------------------------------------------------------------------
~CURVE INFORMATION
#MNEM.UNIT   API CODE                                  DESCRIPTION
#---- -----  --------                                  -----------------------
DEPT .F                                                :DEPTH (BOREHOLE) {F10.1}
AT10 .OHMM                                             :Array Induction Two Foot Resistivity A10 {F11.4}
AT20 .OHMM                                             :Array Induction Two Foot Resistivity A20 {F11.4}
AT30 .OHMM                                             :Array Induction Two Foot Resistivity A30 {F11.4}
AT60 .OHMM                                             :Array Induction Two Foot Resistivity A60 {F11.4}
AT90 .OHMM                                             :Array Induction Two Foot Resistivity A90 {F11.4}
DPHZ .CFCF                                             :HRDD Standard Resolution Density Porosity {F11.4}
DT   .US/F                                             :Delta-T {F11.4}
HCAL .IN                                               :HRCC Caliper Calibrated {F13.4}
GR   .GAPI                                             :Gamma-Ray {F11.4}
HCAL .IN                                               :HRCC Caliper Calibrated {F11.4}
HDRA .G/C3                                             :HRDD Density Correction {F11.4}
NPOR .CFCF                                             :Enhanced Thermal Neutron Porosity {F11.4}
PEFZ .                                                 :HRDD Standard Resolution Formation Photoelectric Factor {F11.4}
RHOZ .G/C3                                             :HRDD Standard Resolution Formation Density {F11.4}
SP   .MV                                               :SP Shifted {F11.4}
SPHI .CFCF                                             :Sonic Porosity {F11.4}
#-----------------------------------------------------------------------------
# 
#     DEPT       AT10       AT20       AT30       AT60       AT90       DPHZ        DT         HCAL         GR        HCAL       HDRA       NPOR       PEFZ       RHOZ        SP        SPHI
#
~A  
# ...
    5440.0     1.6071     1.5439     1.5060     1.4644     1.4286     0.1315   102.9781       8.5145   117.7791     8.5145     0.0528     0.3410     3.3243     2.4852     1.3125     0.3361
    5440.5     1.6649     1.5953     1.5606     1.5271     1.4838     0.1286   102.1857       8.4709   114.4447     8.4709     0.0461     0.2878     3.3069     2.4901     1.0625     0.3339
    5441.0     1.7115     1.6369     1.6033     1.5660     1.5275     0.1276   101.6985       8.5580   114.1009     8.5580     0.0432     0.2714     3.2773     2.4918     0.8750     0.3325
    5441.5     1.7492     1.6574     1.6272     1.5927     1.5575     0.1369   101.3645       8.4491   108.8396     8.4491     0.0300     0.2851     3.2192     2.4759     0.8750     0.3315
    5442.0     1.7689     1.6687     1.6409     1.6090     1.5779     0.1433   101.2710       8.4491   112.4684     8.4491     0.0238     0.3130     3.1825     2.4650     0.6250     0.3312
    5442.5     1.7585     1.6693     1.6390     1.6061     1.5810     0.1416   101.4164       8.5145    94.7690     8.5145     0.0281     0.3095     3.1731     2.4678     0.5625     0.3317
    5443.0     1.7477     1.6670     1.6395     1.6044     1.5925     0.1374   101.8479       8.4709    92.3016     8.4709     0.0408     0.3251     3.2143     2.4751     0.6250     0.3329
    5443.5     1.7382     1.6596     1.6330     1.6011     1.5866     0.1428   102.3304       8.5363    95.8008     8.5363     0.0447     0.3219     3.2517     2.4658     0.9375     0.3343
    5444.0     1.7284     1.6582     1.6256     1.5958     1.5869     0.1447   101.5632       8.5145   106.9205     8.5145     0.0472     0.3712     3.2840     2.4626     1.1875     0.3321
    5444.5     1.8082     1.7492     1.7080     1.6773     1.6665     0.1364    99.4010       8.4600   108.8396     8.4600     0.0474     0.3778     3.3018     2.4767     0.5625     0.3257
    5445.0     2.0285     1.9532     1.8968     1.8573     1.8453     0.1154    96.0728       8.4164    99.0070     8.4164     0.0477     0.2925     3.3130     2.5126    -0.1250     0.3153
    5445.5     2.3187     2.2184     2.1760     2.1387     2.1152     0.1040    91.8695       8.3401    99.8294     8.3401     0.0463     0.2590     3.3366     2.5322    -0.3750     0.3012
    5446.0     2.5618     2.3602     2.2998     2.2470     2.2315     0.0995    91.7744       8.2747   101.2002     8.2747     0.0512     0.2389     3.3616     2.5399    -0.8750     0.3008
    5446.5     2.5110     2.3259     2.2884     2.2472     2.2361     0.1052    91.5936       8.1984   105.8239     8.1984     0.0607     0.2605     3.3620     2.5300    -0.8750     0.3002
    5447.0     2.4098     2.2434     2.2250     2.1965     2.1813     0.1092    92.3208       8.1657   106.3722     8.1657     0.0687     0.2623     3.3189     2.5233    -1.0000     0.3028
    5447.5     2.3509     2.2259     2.2121     2.1745     2.1617     0.1135    93.8710       8.1657   108.8396     8.1657     0.0706     0.2509     3.2650     2.5159    -1.0625     0.3081
    5448.0     2.3273     2.2108     2.1931     2.1545     2.1442     0.1113    93.3872       8.1657   105.3139     8.1657     0.0799     0.2487     3.2439     2.5196    -1.3125     0.3064
    5448.5     2.2988     2.1827     2.1608     2.1215     2.1138     0.1096    93.8067       8.1440   111.3453     8.1440     0.0951     0.3014     3.2617     2.5226    -2.0000     0.3079
    5449.0     2.2630     2.1596     2.1332     2.0895     2.0826     0.1029    93.8531       8.2093   106.6847     8.2093     0.1087     0.2614     3.2840     2.5341    -2.1250     0.3080
    5449.5     2.2495     2.1421     2.1071     2.0582     2.0466     0.1081    93.7883       8.3183   116.7901     8.3183     0.1062     0.2496     3.3108     2.5251    -2.4375     0.3078
    5450.0     2.2030     2.1063     2.0725     2.0157     2.0060     0.1075    94.7243       8.2747   111.0328     8.2747     0.1009     0.2606     3.3320     2.5262    -1.8125     0.3109
    5450.5     2.1641     2.0683     2.0223     1.9697     1.9614     0.1144    95.2856       8.3183   109.7045     8.3183     0.1000     0.2629     3.3575     2.5144    -1.5000     0.3128
    5451.0     2.0980     2.0104     1.9738     1.9196     1.9096     0.1105    95.7850       8.4600   111.3494     8.4600     0.1037     0.2568     3.3520     2.5210    -0.8125     0.3144
    5451.5     2.0715     1.9850     1.9484     1.8944     1.8894     0.1055    96.0411       8.7760   109.1562     8.7760     0.1050     0.3133     3.3418     2.5295    -0.8125     0.3152
    5452.0     2.0716     1.9804     1.9460     1.8906     1.8833     0.0998    96.2089       8.3619   108.5654     8.3619     0.0987     0.3226     3.3183     2.5393    -1.0625     0.3158
    5452.5     2.0826     1.9903     1.9552     1.9000     1.8868     0.1024    95.9311       8.6452   101.9857     8.6452     0.0901     0.2800     3.2993     2.5348    -1.1250     0.3149
    5453.0     2.1139     2.0152     1.9825     1.9273     1.9108     0.1185    95.3697       8.4927    99.8304     8.4927     0.0760     0.2970     3.2685     2.5074    -1.3750     0.3131
    5453.5     2.1493     2.0450     2.0172     1.9562     1.9441     0.1230    94.8598       8.3837   100.6529     8.3837     0.0730     0.3014     3.2543     2.4997    -1.3750     0.3114
    5454.0     2.1770     2.0729     2.0418     1.9764     1.9659     0.1345    94.5765       8.5363    99.0080     8.5363     0.0687     0.2783     3.2500     2.4800    -1.5625     0.3104
    5454.5     2.1845     2.0668     2.0291     1.9661     1.9531     0.1266    95.0091       8.4491   103.9048     8.4491     0.0791     0.2947     3.2567     2.4935    -1.5000     0.3119
    5455.0     2.1246     2.0287     1.9949     1.9330     1.9211     0.1239    95.8909       8.3837   101.7115     8.3837     0.0915     0.2693     3.2640     2.4981    -1.3750     0.3148
    5455.5     2.0655     1.9823     1.9527     1.8951     1.8812     0.1126    96.0613       8.5363   105.2756     8.5363     0.0969     0.3309     3.2638     2.5174    -1.3750     0.3153
    5456.0     2.0532     1.9753     1.9445     1.8901     1.8748     0.1193    96.3039       8.4927    99.8298     8.4927     0.0837     0.3027     3.2572     2.5059    -1.3750     0.3161
    5456.5     2.0880     2.0019     1.9671     1.9130     1.8956     0.1231    96.1219       8.6234   101.2005     8.6234     0.0669     0.2796     3.2590     2.4994    -1.4375     0.3155
    5457.0     2.1243     2.0292     1.9908     1.9259     1.9093     0.1286    96.0703       8.6888   100.6522     8.6888     0.0599     0.2929     3.2643     2.4901    -1.1250     0.3153
    5457.5     2.0988     2.0010     1.9637     1.9059     1.8857     0.1258    96.6800       8.6234   108.0171     8.6234     0.0592     0.2723     3.2566     2.4949    -1.1250     0.3173
    5458.0     2.0553     1.9554     1.9210     1.8601     1.8431     0.1316    97.0144       8.4491   116.5159     8.4491     0.0609     0.2903     3.2203     2.4849    -0.8125     0.3183
    5458.5     2.0169     1.9271     1.8891     1.8311     1.8152     0.1355    97.8831       8.5363   117.9350     8.5363     0.0647     0.3079     3.1800     2.4783    -0.8125     0.3211
    5459.0     1.9733     1.8875     1.8453     1.7897     1.7795     0.1356    98.0553       8.5798   121.7731     8.5798     0.0679     0.2838     3.1505     2.4782    -0.6250     0.3216
    5459.5     1.9425     1.8653     1.8251     1.7705     1.7530     0.1389    97.9006       8.4491   114.0968     8.4491     0.0682     0.3157     3.1534     2.4725    -0.4375     0.3211
    5460.0     1.9683     1.8910     1.8432     1.7826     1.7673     0.1388    98.1206       8.4055   107.4688     8.4055     0.0753     0.3199     3.2109     2.4726    -0.4375     0.3218
    5460.5     1.9884     1.9094     1.8595     1.7976     1.7801     0.1447    97.8815       8.7542   106.3722     8.7542     0.0900     0.2757     3.2972     2.4626    -0.4375     0.3211
    5461.0     1.9767     1.8978     1.8456     1.7870     1.7655     0.1486    97.5570       8.6670   108.0619     8.6670     0.1084     0.2928     3.3689     2.4558    -0.4375     0.3200
