~VERSION INFORMATION
VERS.           2.0   :CWLS Log ASCII Standard - VERSION 2.0
WRAP.           NO    :One Line per depth step
PROD.  Schlumberger   :LAS Producer
PROG.  DLIS to ASCII 2.3                               :LAS Program name and version
CREA.        2012/03/06 09:37                          :LAS Creation date {YYYY/MM/DD hh:mm}
DLIS_CREA.  2012-Mar-04 13:45                          :DLIS Creation date and time {YYYY-MMM-DD hh:mm}
SOURCE.     BFN8-00160_Bear_Fornstrom_44-32_Main.DLIS  :DLIS File Name
FILE-ID.     AIT_SONIC_TLD_MCFL_029PUP                 :File Identification Number
#--------------------------------------------------
~WELL INFORMATION
#MNEM.UNIT      DATA             DESCRIPTION
#---- ------ --------------   -----------------------------
STRT .F      946.5           :START DEPTH     
STOP .F      7726.5          :STOP DEPTH     
STEP .F       0.5            :STEP     
NULL .          -999.25      :NULL VALUE
COMP .        Bear Oil & Gas, Inc.                     :COMPANY
WELL .        Fornstrom 44-32                          :WELL
FLD  .        Britty                                   :FIELD
LOC  .        Sec. 32, T16N, R60W                      :LOCATION
CNTY .        Laramie                                  :COUNTY
STAT .        Wyoming                                  :STATE
CTRY .                                                 :COUNTRY
API  .        49-021-20913-0000                        :API NUMBER
UWI  .                                                 :UNIQUE WELL ID
DATE .        04-Mar-2012                              :LOG DATE {DD-MMM-YYYY}
SRVC .        Schlumberger                             :SERVICE COMPANY
LATI .DEG                                              :LATITUDE
LONG .DEG                                              :LONGITUDE
GDAT .                                                 :GeoDetic Datum
SECT .        32                                       :Section
RANG .        60W                                      :Range
TOWN .        16N                                      :Township
#-----------------------------------------------------------------------------
~PARAMETER INFORMATION
#MNEM.UNIT    VALUE                      DESCRIPTION
#---- -----   --------------------       ------------------------
CN   .        Bear Oil & Gas  Inc.       :Company Name
WN   .        Fornstrom 44-32            :Well Name
FN   .        Britty                     :Field Name
FL   .        Sec. 32  T16N  R60W        :Field Location
FL1  .        SHL  760' FSL X 757' FEL SESE :Field Location Line 1
COUN .        Laramie                    :County or Rig Name
STAT .        Wyoming                    :State or Province
NATI .                                   :Nation
DATE .        4-Mar-2012                 :Date as Month-Day-Year
APIN .        49-021-20913-0000          :API Serial Number
SECT .        32                         :Section
TOWN .        16N                        :Township
RANG .        60W                        :Range
DMF  .        Kelly Bushing              :Drilling Measured From
LMF  .        Kelly Bushing              :Log Measured From
PDAT .        Ground Level               :Permanent Datum
ENGI .        Tim Hoffman                :Engineer's Name
WITN .        Terry Eittreim             :Witness's Name
LATI .                                   :Latitude
LONG .                                   :Longitude
LUL  .        Ft. Morgan  CO             :Logging Unit Location
LUN  .              2153                 :Logging Unit Number
RUN  .        1                          :Run Number
SON  .        BFN8-00160                 :Service Order Number
BHT  .DEGF     170.00000                 :Bottom Hole Temperature (used in calculations)
BS   .IN         7.87500                 :Bit Size
MDEN .G/C3       2.65000                 :Matrix Density
DFD  .LB/G       9.20000                 :Drilling Fluid Density
DFV  .S         68.00000                 :Drilling Fluid Viscosity
DFL  .C3         5.60000                 :Drilling Fluid Loss
RMFS .OHMM       1.84875                 :Resistivity of Mud Filtrate Sample
EKB  .F       5292.00000                 :Elevation of Kelly Bushing
EGL  .F       5276.00000                 :Elevation of Ground Level
BLI  .F       7696.00000                 :Bottom Log Interval
BSAL .                                   :Borehole Salinity
FLEV .F        300.00000                 :Fluid Level
MCST .DEGF      91.00000                 :Mud Cake Sample Temperature
MFST .DEGF      91.00000                 :Mud Filtrate Sample Temperature
MRT  .DEGF     170.00000                 :Maximum Recorded Temperature
MST  .DEGF      91.00000                 :Mud Sample Temperature
RMCS .OHMM       3.69750                 :Resistivity of Mud Cake Sample
RMS  .OHMM       2.46500                 :Resistivity of Mud Sample
RW   .OHMM       1.00000                 :Resistivity of Connate Water
TDD  .F       7700.00000                 :Total Depth - Driller
TDL  .F       7704.00000                 :Total Depth - Logger
TLI  .F       1044.00000                 :Top Log Interval
HIDE .        BHC Sonic                  :Header Identifier
MATR .        SAND                       :Rock Matrix for Neutron Porosity Corrections
FNUM .           1.00000                 :Form Factor Numerator
FEXP .           2.00000                 :Form Factor Exponent
DFT  .        Gel and Chemical           :Drilling Fluid Type
DFPH .           8.50000                 :Drilling Fluid PH
MCSS .        Calculated                 :Mud Cake Sample Source
MFSS .        Calculated                 :Mud Filtrate Sample Source
FD   .G/C3       1.00000                 :Fluid Density
MSS  .        Flowline                   :Mud Sample Source
OS1  .        PEX AIT                    :Other Services Line 1
OS2  .                                   :Other Services Line 2
OS3  .                                   :Other Services Line 3
OS4  .                                   :Other Services Line 4
OS5  .                                   :Other Services Line 5
R1   .        This is the first run in hole :Remark Line 1
R2   .                                   :Remark Line 2
R3   .        Toolstring run as per tool sketch :Remark Line 3
R4   .                                   :Remark Line 4
R5   .        Matrix  Sandstone (2.65 g/cc) from TD to 7264' :Remark Line 5
R6   .                     Limestone (2.71 g/cc) from 7264' to Surface :Remark Line 6
R7   .                                   :Remark Line 7
R8   .        EDTC run for telemetry and not used for gamma ray :Remark Line 8
TCS  .        3 00                       :Time Circulation Stopped
TLAB .        11 40                      :Time Logger At Bottom
NMT  .        NOBARITE                   :HILT Nuclear Mud Type
EPD  .F         5276.000000              :Elevation of Permanent Datum above Mean Sea Level
APD  .F          16.000000               :Elevation of Depth Reference (LMF) above Permanent Datum
#-----------------------------------------------------------------------------
~CURVE INFORMATION
#MNEM.UNIT   API CODE                                  DESCRIPTION
#---- -----  --------                                  -----------------------
DEPT .F                                                :DEPTH (BOREHOLE) {F10.1}
AT10 .OHMM                                             :Array Induction Two Foot Resistivity A10 {F11.4}
AT20 .OHMM                                             :Array Induction Two Foot Resistivity A20 {F11.4}
AT30 .OHMM                                             :Array Induction Two Foot Resistivity A30 {F11.4}
AT60 .OHMM                                             :Array Induction Two Foot Resistivity A60 {F11.4}
AT90 .OHMM                                             :Array Induction Two Foot Resistivity A90 {F11.4}
DPHZ .CFCF                                             :HRDD Standard Resolution Density Porosity {F11.4}
DT   .US/F                                             :Delta-T {F11.4}
HCAL .IN                                               :HRCC Caliper Calibrated {F13.4}
GR   .GAPI                                             :Gamma-Ray {F11.4}
HCAL .IN                                               :HRCC Caliper Calibrated {F11.4}
HDRA .G/C3                                             :HRDD Density Correction {F11.4}
NPOR .CFCF                                             :Enhanced Thermal Neutron Porosity {F11.4}
PEFZ .                                                 :HRDD Standard Resolution Formation Photoelectric Factor {F11.4}
RHOZ .G/C3                                             :HRDD Standard Resolution Formation Density {F11.4}
SP   .MV                                               :SP Shifted {F11.4}
SPHI .CFCF                                             :Sonic Porosity {F11.4}
#-----------------------------------------------------------------------------
# 
#     DEPT       AT10       AT20       AT30       AT60       AT90       DPHZ        DT         HCAL         GR        HCAL       HDRA       NPOR       PEFZ       RHOZ        SP        SPHI
#
~A  
     946.5  1950.0000     0.7774    86.4082   105.5981   368.4488     0.0972    55.0457       4.0248    65.7362     4.0248     0.5690     0.5225     9.0693     2.5438    27.6875     0.0845
     947.0  1950.0000     0.7774    86.4082   105.5981   368.4488     0.0972    55.0457       4.0684    69.6441     4.0684     0.5690     0.5225     9.0693     2.5438    27.5000     0.0845
     947.5  1950.0000     0.7774    86.4082   105.5981   368.4488     0.0972    55.0457       4.0902    72.9350     4.0902     0.5690     0.5669     9.0693     2.5438    27.1875     0.0845
     948.0  1950.0000     0.7774    86.4082   105.5981   368.4488     0.0972    55.0457       4.1665    77.8495     4.1665     0.5690     0.5231     9.0693     2.5438    26.9375     0.0845
     948.5  1950.0000     0.7774    86.4082   105.5981   368.4488     0.0972    55.0457       4.2645    71.0620     4.2645     0.5690     0.4608     9.0693     2.5438    27.5000     0.0845
     949.0  1950.0000     0.7774    86.4082   105.5981   368.4488     0.0972    54.9709       4.3735    72.0904     4.3735     0.5690     0.4218     9.0693     2.5438    27.5625     0.0838
     949.5  1950.0000     0.7774    86.4082   105.5981   368.4488     0.0972    55.1195       4.4607    73.0549     4.4607     0.5690     0.4211     9.0693     2.5438    27.6875     0.0853
     950.0  1950.0000     0.7774    86.4082   105.5981   368.4488     0.0972    54.9910       4.5370    75.0898     4.5370     0.5690     0.5338     9.0693     2.5438    28.2500     0.0840
     950.5  1950.0000     0.7774    86.4082   105.5981   368.4488     0.0972    55.1894       4.6786    70.1535     4.6786     0.5690     0.5497     9.0693     2.5438    27.8125     0.0859
     951.0  1950.0000     0.7774    86.4082   105.5981   368.4488     0.0972    55.6068       4.7658    70.8590     4.7658     0.5690     0.4679     9.0693     2.5438    27.8125     0.0900
     951.5  1950.0000     0.7774    86.4082   105.5981   368.4488     0.0972    55.4701       4.8312    73.5547     4.8312     0.5690     0.5545     9.0693     2.5438    27.6875     0.0887
     952.0  1950.0000     0.7774    86.4082   105.5981   368.4488     0.0972    55.4389       4.8966    70.0581     4.8966     0.5690     0.5805     9.0693     2.5438    27.5000     0.0884
     952.5  1950.0000     0.7774    86.4082   105.5981   368.4488     0.0749    55.4621       4.9838    74.4957     4.9838     0.5972     0.5416     9.0179     2.5819    27.9375     0.0886
     953.0  1950.0000     0.7775    84.4027   101.9496   346.5522     0.0310    63.0512       5.1472    73.4673     5.1472     0.6521     0.5007     8.9367     2.6570    28.3750     0.1532
     953.5  1950.0000     0.7781    80.2953    96.2053   284.6634     0.0005    63.4141       5.2889    77.1696     5.2889     0.6921     0.5259     8.9007     2.7092    28.3750     0.1559
     954.0  1950.0000     0.7797    76.2897    93.6726   224.4279    -0.0064    63.2401       5.4414    70.9594     5.4414     0.7018     0.4336     8.9250     2.7209    27.9375     0.1546
     954.5  1950.0000     0.7826    75.2424    97.0422   181.2338     0.0132    63.6207       5.5940    67.2572     5.5940     0.6774     0.4833     9.0209     2.6874    27.5625     0.1574
     955.0  1950.0000     0.7878    77.8171   103.2591   152.9139     0.0287    54.7536       5.7248    62.4165     5.7248     0.6578     0.5080     9.0986     2.6610    27.3125     0.0817
     955.5  1950.0000     0.7910    80.2780   109.4154   135.5058     0.0409    54.9831       5.8773    55.4092     5.8773     0.6470     0.4888     9.1819     2.6400    26.8125     0.0839
     956.0  1950.0000     0.8002    85.4358   109.2811   125.4122     0.0422    54.9510       6.0081    58.4944     6.0081     0.6502     0.4554     9.2329     2.6378    26.6250     0.0836
     956.5  1950.0000     0.8123    82.3075    97.7546   113.7680     0.0381    54.8262       6.1825    63.6678     6.1825     0.6596     0.4888     9.3165     2.6448    26.6250     0.0824
     957.0  1950.0000     0.8169    77.1727    82.4010    97.4931     0.0323    54.4966       6.3241    71.4979     6.3241     0.6610     0.6299     9.4235     2.6548    26.9375     0.0791
     957.5  1950.0000     0.8185    71.6644    68.8295    85.3947    -0.0015    65.5805       6.4876    62.8593     6.4876     0.6790     0.6762     9.5459     2.7126    26.8750     0.1714
     958.0  1950.0000     0.8174    48.5836    55.8055    74.3272    -0.0305    60.1374       6.6401    51.7931     6.6401     0.6620     0.5012     9.7339     2.7621    27.2500     0.1303
     958.5  1950.0000     0.8038    41.8201    37.0484    52.3121    -0.0616    58.5086       6.7709    46.8568     6.7709     0.6162     0.5085     9.8720     2.8153    27.3750     0.1165
     959.0  1950.0000     0.8011    49.1434    42.1980    61.6252    -0.0529    58.8823       6.9453    50.1477     6.9453     0.5123     0.4730     9.9803     2.8005    27.6250     0.1198
     959.5  1950.0000     0.7917    56.2833    50.9481    60.4113     0.0311    45.2885       7.0760    57.7959     7.0760     0.3613     0.4253    10.0000     2.6568    28.1875    -0.0319
     960.0  1950.0000     0.7853    63.7073    53.5386    61.8047     0.1326    51.9914       7.2504    62.0360     7.2504     0.2111     0.3731    10.0000     2.4833    28.3125     0.0528
     960.5  1950.0000     0.7823    78.6312    46.1183    59.2759     0.1828    55.4927       7.4029    66.3552     7.4029     0.1568     0.4192    10.0000     2.3974    28.5000     0.0889
     961.0  1950.0000     0.7827   105.3226    58.9469    61.7377     0.1159    55.5813       7.5337    65.3086     7.5337     0.2527     0.4591    10.0000     2.5117    28.2500     0.0897
     961.5  1950.0000     0.7836   141.7658    76.0979    76.5304     0.0091    55.5373       7.7299    61.0757     7.7299     0.4304     0.4857    10.0000     2.6945    28.0000     0.0893
     962.0  1950.0000     0.7810   190.6403    90.7986    94.4962    -0.0611    55.4204       7.8388    57.9905     7.8388     0.5551     0.4719    10.0000     2.8145    27.8125     0.0882
     962.5  1950.0000     0.7726   234.5984   124.6689   133.4892    -0.0787    55.1194       7.9151    58.8315     7.9151     0.5878     0.5700    10.0000     2.8445    27.5000     0.0853
     963.0  1950.0000     0.7584   239.1954   184.9848   214.1254    -0.0719    55.0121       7.9914    58.8122     7.9914     0.5753     0.6789    10.0000     2.8329    27.5625     0.0842
     963.5  1950.0000     0.7469   204.4951   280.4683   379.4224    -0.0701    54.7795       8.0568    57.5781     8.0568     0.5683     0.5973    10.0000     2.8299    27.6250     0.0819
     964.0  1950.0000     0.7379   164.5649   377.4607   695.8865    -0.0806    54.4819       8.1222    55.7270     8.1222     0.5783     0.5004    10.0000     2.8479    27.6250     0.0789
     964.5  1950.0000     0.7348   136.6764   371.8649  1176.0479    -0.0919    54.6874       8.1440    57.6276     8.1440     0.5901     0.5420    10.0000     2.8672    27.5625     0.0810
     965.0  1950.0000     0.7386   121.8852   274.5787  1456.7366    -0.0903    54.8111       8.1222    56.3935     8.1222     0.5955     0.5669    10.0000     2.8645    27.5000     0.0822
     965.5  1950.0000     0.7470   116.4721   187.0240  1207.1021    -0.0710    55.0214       8.1222    55.1594     8.1222     0.5943     0.4078    10.0000     2.8314    27.1875     0.0843
     966.0  1950.0000     0.7585   117.2034   132.1261   777.8710    -0.0424    55.2998       8.1222    56.3561     8.1222     0.5813     0.4831    10.0000     2.7825    27.0000     0.0870
     966.5  1950.0000     0.7713   121.6985    99.8629   468.9878    -0.0176    55.4675       8.1440    60.3082     8.1440     0.5668     0.6187    10.0000     2.7400    26.9375     0.0886
     967.0  1950.0000     0.7837   128.6806    81.9554   292.8320    -0.0020    55.5295       8.1222    60.1025     8.1222     0.5548     0.5890    10.0000     2.7134    26.9375     0.0892
     967.5  1950.0000     0.7948   138.8822    71.9955   199.9231     0.0063    55.5412       8.1440    59.6911     8.1440     0.5489     0.5624    10.0000     2.6992    26.3125     0.0894
