~VERSION INFORMATION
VERS.           2.0   :CWLS Log ASCII Standard - VERSION 2.0
WRAP.           NO    :One Line per depth step
PROD.  Schlumberger   :LAS Producer
PROG.  DLIS to ASCII 2.3                               :LAS Program name and version
CREA.        2012/03/06 09:37                          :LAS Creation date {YYYY/MM/DD hh:mm}
DLIS_CREA.  2012-Mar-04 13:45                          :DLIS Creation date and time {YYYY-MMM-DD hh:mm}
SOURCE.     BFN8-00160_Bear_Fornstrom_44-32_Main.DLIS  :DLIS File Name
FILE-ID.     AIT_SONIC_TLD_MCFL_029PUP                 :File Identification Number
#--------------------------------------------------
~WELL INFORMATION
#MNEM.UNIT      DATA             DESCRIPTION
#---- ------ --------------   -----------------------------
STRT .F      946.5           :START DEPTH     
STOP .F      7726.5          :STOP DEPTH     
STEP .F       0.5            :STEP     
NULL .          -999.25      :NULL VALUE
COMP .        Bear Oil & Gas, Inc.                     :COMPANY
WELL .        Fornstrom 44-32                          :WELL
FLD  .        Britty                                   :FIELD
LOC  .        Sec. 32, T16N, R60W                      :LOCATION
CNTY .        Laramie                                  :COUNTY
STAT .        Wyoming                                  :STATE
CTRY .                                                 :COUNTRY
API  .        49-021-20913-0000                        :API NUMBER
UWI  .                                                 :UNIQUE WELL ID
DATE .        04-Mar-2012                              :LOG DATE {DD-MMM-YYYY}
SRVC .        Schlumberger                             :SERVICE COMPANY
LATI .DEG                                              :LATITUDE
LONG .DEG                                              :LONGITUDE
GDAT .                                                 :GeoDetic Datum
SECT .        32                                       :Section
RANG .        60W                                      :Range
TOWN .        16N                                      :Township
#-----------------------------------------------------------------------------
~PARAMETER INFORMATION
#MNEM.UNIT    VALUE                      DESCRIPTION
#---- -----   --------------------       ------------------------
CN   .        Bear Oil & Gas  Inc.       :Company Name
WN   .        Fornstrom 44-32            :Well Name
FN   .        Britty                     :Field Name
FL   .        Sec. 32  T16N  R60W        :Field Location
FL1  .        SHL  760' FSL X 757' FEL SESE :Field Location Line 1
COUN .        Laramie                    :County or Rig Name
STAT .        Wyoming                    :State or Province
NATI .                                   :Nation
DATE .        4-Mar-2012                 :Date as Month-Day-Year
APIN .        49-021-20913-0000          :API Serial Number
SECT .        32                         :Section
TOWN .        16N                        :Township
RANG .        60W                        :Range
DMF  .        Kelly Bushing              :Drilling Measured From
LMF  .        Kelly Bushing              :Log Measured From
PDAT .        Ground Level               :Permanent Datum
ENGI .        Tim Hoffman                :Engineer's Name
WITN .        Terry Eittreim             :Witness's Name
LATI .                                   :Latitude
LONG .                                   :Longitude
LUL  .        Ft. Morgan  CO             :Logging Unit Location
LUN  .              2153                 :Logging Unit Number
RUN  .        1                          :Run Number
SON  .        BFN8-00160                 :Service Order Number
BHT  .DEGF     170.00000                 :Bottom Hole Temperature (used in calculations)
BS   .IN         7.87500                 :Bit Size
MDEN .G/C3       2.65000                 :Matrix Density
DFD  .LB/G       9.20000                 :Drilling Fluid Density
DFV  .S         68.00000                 :Drilling Fluid Viscosity
DFL  .C3         5.60000                 :Drilling Fluid Loss
RMFS .OHMM       1.84875                 :Resistivity of Mud Filtrate Sample
EKB  .F       5292.00000                 :Elevation of Kelly Bushing
EGL  .F       5276.00000                 :Elevation of Ground Level
BLI  .F       7696.00000                 :Bottom Log Interval
BSAL .                                   :Borehole Salinity
FLEV .F        300.00000                 :Fluid Level
MCST .DEGF      91.00000                 :Mud Cake Sample Temperature
MFST .DEGF      91.00000                 :Mud Filtrate Sample Temperature
MRT  .DEGF     170.00000                 :Maximum Recorded Temperature
MST  .DEGF      91.00000                 :Mud Sample Temperature
RMCS .OHMM       3.69750                 :Resistivity of Mud Cake Sample
RMS  .OHMM       2.46500                 :Resistivity of Mud Sample
RW   .OHMM       1.00000                 :Resistivity of Connate Water
TDD  .F       7700.00000                 :Total Depth - Driller
TDL  .F       7704.00000                 :Total Depth - Logger
TLI  .F       1044.00000                 :Top Log Interval
HIDE .        BHC Sonic                  :Header Identifier
MATR .        SAND                       :Rock Matrix for Neutron Porosity Corrections
FNUM .           1.00000                 :Form Factor Numerator
FEXP .           2.00000                 :Form Factor Exponent
DFT  .        Gel and Chemical           :Drilling Fluid Type
DFPH .           8.50000                 :Drilling Fluid PH
MCSS .        Calculated                 :Mud Cake Sample Source
MFSS .        Calculated                 :Mud Filtrate Sample Source
FD   .G/C3       1.00000                 :Fluid Density
MSS  .        Flowline                   :Mud Sample Source
OS1  .        PEX AIT                    :Other Services Line 1
OS2  .                                   :Other Services Line 2
OS3  .                                   :Other Services Line 3
OS4  .                                   :Other Services Line 4
OS5  .                                   :Other Services Line 5
R1   .        This is the first run in hole :Remark Line 1
R2   .                                   :Remark Line 2
R3   .        Toolstring run as per tool sketch :Remark Line 3
R4   .                                   :Remark Line 4
R5   .        Matrix  Sandstone (2.65 g/cc) from TD to 7264' :Remark Line 5
R6   .                     Limestone (2.71 g/cc) from 7264' to Surface :Remark Line 6
R7   .                                   :Remark Line 7
R8   .        EDTC run for telemetry and not used for gamma ray :Remark Line 8
TCS  .        3 00                       :Time Circulation Stopped
TLAB .        11 40                      :Time Logger At Bottom
NMT  .        NOBARITE                   :HILT Nuclear Mud Type
EPD  .F         5276.000000              :Elevation of Permanent Datum above Mean Sea Level
APD  .F          16.000000               :Elevation of Depth Reference (LMF) above Permanent Datum
#-----------------------------------------------------------------------------
~CURVE INFORMATION
#MNEM.UNIT   API CODE                                  DESCRIPTION
#---- -----  --------                                  -----------------------
DEPT .F                                                :DEPTH (BOREHOLE) {F10.1}
AT10 .OHMM                                             :Array Induction Two Foot Resistivity A10 {F11.4}
AT20 .OHMM                                             :Array Induction Two Foot Resistivity A20 {F11.4}
AT30 .OHMM                                             :Array Induction Two Foot Resistivity A30 {F11.4}
AT60 .OHMM                                             :Array Induction Two Foot Resistivity A60 {F11.4}
AT90 .OHMM                                             :Array Induction Two Foot Resistivity A90 {F11.4}
DPHZ .CFCF                                             :HRDD Standard Resolution Density Porosity {F11.4}
DT   .US/F                                             :Delta-T {F11.4}
HCAL .IN                                               :HRCC Caliper Calibrated {F13.4}
GR   .GAPI                                             :Gamma-Ray {F11.4}
HCAL .IN                                               :HRCC Caliper Calibrated {F11.4}
HDRA .G/C3                                             :HRDD Density Correction {F11.4}
NPOR .CFCF                                             :Enhanced Thermal Neutron Porosity {F11.4}
PEFZ .                                                 :HRDD Standard Resolution Formation Photoelectric Factor {F11.4}
RHOZ .G/C3                                             :HRDD Standard Resolution Formation Density {F11.4}
SP   .MV                                               :SP Shifted {F11.4}
SPHI .CFCF                                             :Sonic Porosity {F11.4}
#-----------------------------------------------------------------------------
# 
#     DEPT       AT10       AT20       AT30       AT60       AT90       DPHZ        DT         HCAL         GR        HCAL       HDRA       NPOR       PEFZ       RHOZ        SP        SPHI
#
~A  
# ...
    4537.0     2.3398     2.2502     2.2388     2.2333     2.2097     0.1382    96.3392       8.9939   103.7570     8.9939     0.0677     0.2188     2.9783     2.4737    -3.3125     0.3162
    4537.5     2.2881     2.2018     2.1925     2.1853     2.1719     0.1444    96.0786       8.7542    99.6447     8.7542     0.0543     0.2398     2.8987     2.4631    -3.2500     0.3154
    4538.0     2.2735     2.1867     2.1808     2.1719     2.1616     0.1630    95.6879       9.1138    96.5026     9.1138     0.0343     0.2248     2.8137     2.4313    -3.4375     0.3141
    4538.5     2.2869     2.2106     2.1948     2.1727     2.1611     0.1707    95.5670       8.7760    98.4217     8.7760     0.0388     0.2333     2.8051     2.4181    -3.4375     0.3137
    4539.0     2.2905     2.2311     2.2077     2.1855     2.1710     0.1637    95.5843       9.2337    97.0926     9.2337     0.0649     0.2380     2.8473     2.4300    -3.5000     0.3138
    4539.5     2.2274     2.1712     2.1532     2.1312     2.1144     0.1482    95.8107       9.2555   106.7577     9.2555     0.1045     0.2427     2.9102     2.4566    -3.5625     0.3145
    4540.0     2.1045     2.0275     1.9997     1.9761     1.9611     0.1484    96.9234       9.2991   110.0344     9.2991     0.1246     0.2366     2.9139     2.4563    -3.5625     0.3181
    4540.5     1.9015     1.8548     1.8311     1.8133     1.7903     0.1628    99.3486       9.4080   107.8150     9.4080     0.1309     0.2501     2.9077     2.4315    -3.9375     0.3255
    4541.0     1.7444     1.7051     1.6843     1.6678     1.6530     0.1668   100.4688       9.6478    96.7791     9.6478     0.1431     0.2790     2.9317     2.4249    -3.8750     0.3289
    4541.5     1.7552     1.7361     1.7222     1.7026     1.6838     0.1634   101.6486      10.3016    97.8889    10.3016     0.1652     0.2510     3.0134     2.4306    -3.8125     0.3323
    4542.0     1.8482     1.8173     1.7946     1.7701     1.7526     0.1662   103.2913       9.3317   102.2598     9.3317     0.1822     0.2467     3.0994     2.4258    -3.8750     0.3370
    4542.5     1.9018     1.8598     1.8311     1.8098     1.7855     0.1759   101.8649       9.5279   113.0015     9.5279     0.1831     0.3114     3.1424     2.4092    -3.3125     0.3329
    4543.0     1.9495     1.9044     1.8774     1.8585     1.8277     0.1784   102.4710       9.9747   110.5341     9.9747     0.1602     0.3002     3.1156     2.4049    -3.5000     0.3347
    4543.5     2.0088     1.9497     1.9292     1.9126     1.8735     0.1793   103.3680      10.1926   110.2599    10.1926     0.1221     0.2506     3.0703     2.4034    -3.5000     0.3372
    4544.0     2.0369     1.9775     1.9607     1.9394     1.8977     0.1741   100.6958       9.1247   110.2850     9.1247     0.0955     0.2567     3.0761     2.4122    -3.6250     0.3296
    4544.5     2.0592     1.9768     1.9484     1.9212     1.8981     0.1872   101.2854       9.6042   113.8490     9.6042     0.0834     0.2719     3.1129     2.3899    -3.9375     0.3313
    4545.0     1.9885     1.9296     1.8980     1.8748     1.8476     0.1946   103.1477       9.3644   117.1389     9.3644     0.0911     0.2716     3.1423     2.3773    -3.7500     0.3366
    4545.5     1.8917     1.8527     1.8297     1.8026     1.7780     0.2096   104.5090       9.3535   112.9519     9.3535     0.0953     0.2547     3.1163     2.3516    -3.4375     0.3403
    4546.0     1.7665     1.7294     1.7061     1.6817     1.6664     0.2144   107.3407      10.0837   113.2260    10.0837     0.1009     0.2848     3.0718     2.3434    -3.1875     0.3478
    4546.5     1.6280     1.5919     1.5659     1.5494     1.5331     0.2119   108.6489      10.2362   115.1958    10.2362     0.1028     0.2799     3.0344     2.3476    -2.9375     0.3512
    4547.0     1.5476     1.5221     1.4956     1.4820     1.4631     0.2119   107.9775      10.0401   113.5508    10.0401     0.1040     0.3402     3.0512     2.3476    -2.8750     0.3495
    4547.5     1.6264     1.6050     1.5777     1.5545     1.5298     0.2077   107.6593       9.7567   108.8902     9.7567     0.1064     0.2558     3.1136     2.3548    -3.1250     0.3487
    4548.0     1.7470     1.7110     1.6809     1.6607     1.6258     0.2111   105.7809      10.3234   103.9048    10.3234     0.1093     0.2752     3.1742     2.3490    -3.1875     0.3438
    4548.5     1.7695     1.7240     1.6873     1.6661     1.6273     0.2098   105.9564       9.7349   102.1663     9.7349     0.1103     0.2832     3.1614     2.3513    -3.0625     0.3442
    4549.0     1.7624     1.7146     1.6785     1.6515     1.6118     0.2153   104.8614       9.7567   110.1167     9.7567     0.0983     0.3000     3.0690     2.3419    -3.1250     0.3413
    4549.5     1.8196     1.7699     1.7441     1.7193     1.6762     0.2279   104.1143       9.7132   114.2291     9.7132     0.0726     0.3000     2.9554     2.3202    -3.3125     0.3393
    4550.0     1.9332     1.8690     1.8416     1.8168     1.7725     0.2408   103.4269       8.6234   119.5785     8.6234     0.0474     0.2705     2.8830     2.2982    -3.1875     0.3374
    4550.5     1.9526     1.8929     1.8575     1.8261     1.7829     0.2399   101.5258       9.4952   116.8369     9.4952     0.0474     0.2826     2.8859     2.2998    -3.1875     0.3320
    4551.0     1.8594     1.8099     1.7769     1.7546     1.7196     0.2338   103.6007       9.5824   120.1268     9.5824     0.0619     0.2972     2.8945     2.3102    -2.9375     0.3378
    4551.5     1.7547     1.7025     1.6719     1.6489     1.6231     0.2284   104.2680       9.3644   119.0563     9.3644     0.0837     0.3041     2.8983     2.3194    -2.7500     0.3397
    4552.0     1.7504     1.7068     1.6832     1.6625     1.6381     0.2311   104.4445       9.3426   119.0563     9.3426     0.0878     0.3479     2.8748     2.3148    -3.0625     0.3402
    4552.5     1.8704     1.8232     1.7971     1.7764     1.7533     0.2311   104.5172       8.9721   113.0249     8.9721     0.0928     0.3038     2.8894     2.3148    -3.0625     0.3404
    4553.0     1.9809     1.9189     1.8785     1.8589     1.8281     0.2181   102.0587       9.1465   108.0171     9.1465     0.1071     0.2916     2.9261     2.3370    -3.1875     0.3335
    4553.5     1.9772     1.9078     1.8731     1.8539     1.8299     0.2272   102.6009       9.4952   105.8704     9.4952     0.1168     0.3363     2.9423     2.3215    -3.4375     0.3350
    4554.0     1.9718     1.9026     1.8741     1.8542     1.8367     0.2396   102.3201       9.6478   105.5962     9.6478     0.1260     0.2976     2.9279     2.3003    -3.1250     0.3342
    4554.5     2.0151     1.9558     1.9270     1.9125     1.8894     0.2499   101.3981       9.7785   109.2875     9.7785     0.1265     0.2866     2.9033     2.2826    -3.1250     0.3316
    4555.0     2.1306     2.0703     2.0387     2.0107     1.9973     0.2289   100.8152       9.1901   109.7758     9.1901     0.1274     0.2884     2.8936     2.3186    -3.1250     0.3299
    4555.5     2.2457     2.1921     2.1524     2.1290     2.0957     0.1957    99.3983       9.3426   111.5496     9.3426     0.1375     0.2762     2.9261     2.3753    -3.1875     0.3257
    4556.0     2.2673     2.1999     2.1618     2.1448     2.1124     0.1828    99.1272       9.3209   108.4066     9.3209     0.1446     0.2949     2.9502     2.3974    -3.0625     0.3249
    4556.5     2.2237     2.1498     2.1242     2.1172     2.0801     0.1858    98.9303       9.2119   111.4358     9.2119     0.1567     0.3172     2.9565     2.3923    -3.1250     0.3243
    4557.0     2.2222     2.1488     2.1293     2.1258     2.0950     0.1847    99.0540       8.7978   106.0980     8.7978     0.1710     0.2918     2.9324     2.3942    -3.5625     0.3247
    4557.5     2.2903     2.2108     2.1860     2.1794     2.1440     0.1862    99.2359       8.9939   109.7065     8.9939     0.1774     0.2530     2.9024     2.3917    -3.5625     0.3252
    4558.0     2.3269     2.2366     2.2144     2.2075     2.1725     0.1941    99.0817       8.3401   105.6671     8.3401     0.1797     0.2732     2.8686     2.3780    -3.4375     0.3247
