~VERSION INFORMATION
VERS.           2.0   :CWLS Log ASCII Standard - VERSION 2.0
WRAP.           NO    :One Line per depth step
PROD.  Schlumberger   :LAS Producer
PROG.  DLIS to ASCII 2.3                               :LAS Program name and version
CREA.        2012/03/06 09:37                          :LAS Creation date {YYYY/MM/DD hh:mm}
DLIS_CREA.  2012-Mar-04 13:45                          :DLIS Creation date and time {YYYY-MMM-DD hh:mm}
SOURCE.     BFN8-00160_Bear_Fornstrom_44-32_Main.DLIS  :DLIS File Name
FILE-ID.     AIT_SONIC_TLD_MCFL_029PUP                 :File Identification Number
#--------------------------------------------------
~WELL INFORMATION
#MNEM.UNIT      DATA             DESCRIPTION
#---- ------ --------------   -----------------------------
STRT .F      946.5           :START DEPTH     
STOP .F      7726.5          :STOP DEPTH     
STEP .F       0.5            :STEP     
NULL .          -999.25      :NULL VALUE
COMP .        Bear Oil & Gas, Inc.                     :COMPANY
WELL .        Fornstrom 44-32                          :WELL
FLD  .        Britty                                   :FIELD
LOC  .        Sec. 32, T16N, R60W                      :LOCATION
CNTY .        Laramie                                  :COUNTY
STAT .        Wyoming                                  :STATE
CTRY .                                                 :COUNTRY
API  .        49-021-20913-0000                        :API NUMBER
UWI  .                                                 :UNIQUE WELL ID
DATE .        04-Mar-2012                              :LOG DATE {DD-MMM-YYYY}
SRVC .        Schlumberger                             :SERVICE COMPANY
LATI .DEG                                              :LATITUDE
LONG .DEG                                              :LONGITUDE
GDAT .                                                 :GeoDetic Datum
SECT .        32                                       :Section
RANG .        60W                                      :Range
TOWN .        16N                                      :Township
#-----------------------------------------------------------------------------
~PARAMETER INFORMATION
#MNEM.UNIT    VALUE                      DESCRIPTION
#---- -----   --------------------       ------------------------
CN   .        Bear Oil & Gas  Inc.       :Company Name
WN   .        Fornstrom 44-32            :Well Name
FN   .        Britty                     :Field Name
FL   .        Sec. 32  T16N  R60W        :Field Location
FL1  .        SHL  760' FSL X 757' FEL SESE :Field Location Line 1
COUN .        Laramie                    :County or Rig Name
STAT .        Wyoming                    :State or Province
NATI .                                   :Nation
DATE .        4-Mar-2012                 :Date as Month-Day-Year
APIN .        49-021-20913-0000          :API Serial Number
SECT .        32                         :Section
TOWN .        16N                        :Township
RANG .        60W                        :Range
DMF  .        Kelly Bushing              :Drilling Measured From
LMF  .        Kelly Bushing              :Log Measured From
PDAT .        Ground Level               :Permanent Datum
ENGI .        Tim Hoffman                :Engineer's Name
WITN .        Terry Eittreim             :Witness's Name
LATI .                                   :Latitude
LONG .                                   :Longitude
LUL  .        Ft. Morgan  CO             :Logging Unit Location
LUN  .              2153                 :Logging Unit Number
RUN  .        1                          :Run Number
SON  .        BFN8-00160                 :Service Order Number
BHT  .DEGF     170.00000                 :Bottom Hole Temperature (used in calculations)
BS   .IN         7.87500                 :Bit Size
MDEN .G/C3       2.65000                 :Matrix Density
DFD  .LB/G       9.20000                 :Drilling Fluid Density
DFV  .S         68.00000                 :Drilling Fluid Viscosity
DFL  .C3         5.60000                 :Drilling Fluid Loss
RMFS .OHMM       1.84875                 :Resistivity of Mud Filtrate Sample
EKB  .F       5292.00000                 :Elevation of Kelly Bushing
EGL  .F       5276.00000                 :Elevation of Ground Level
BLI  .F       7696.00000                 :Bottom Log Interval
BSAL .                                   :Borehole Salinity
FLEV .F        300.00000                 :Fluid Level
MCST .DEGF      91.00000                 :Mud Cake Sample Temperature
MFST .DEGF      91.00000                 :Mud Filtrate Sample Temperature
MRT  .DEGF     170.00000                 :Maximum Recorded Temperature
MST  .DEGF      91.00000                 :Mud Sample Temperature
RMCS .OHMM       3.69750                 :Resistivity of Mud Cake Sample
RMS  .OHMM       2.46500                 :Resistivity of Mud Sample
RW   .OHMM       1.00000                 :Resistivity of Connate Water
TDD  .F       7700.00000                 :Total Depth - Driller
TDL  .F       7704.00000                 :Total Depth - Logger
TLI  .F       1044.00000                 :Top Log Interval
HIDE .        BHC Sonic                  :Header Identifier
MATR .        SAND                       :Rock Matrix for Neutron Porosity Corrections
FNUM .           1.00000                 :Form Factor Numerator
FEXP .           2.00000                 :Form Factor Exponent
DFT  .        Gel and Chemical           :Drilling Fluid Type
DFPH .           8.50000                 :Drilling Fluid PH
MCSS .        Calculated                 :Mud Cake Sample Source
MFSS .        Calculated                 :Mud Filtrate Sample Source
FD   .G/C3       1.00000                 :Fluid Density
MSS  .        Flowline                   :Mud Sample Source
OS1  .        PEX AIT                    :Other Services Line 1
OS2  .                                   :Other Services Line 2
OS3  .                                   :Other Services Line 3
OS4  .                                   :Other Services Line 4
OS5  .                                   :Other Services Line 5
R1   .        This is the first run in hole :Remark Line 1
R2   .                                   :Remark Line 2
R3   .        Toolstring run as per tool sketch :Remark Line 3
R4   .                                   :Remark Line 4
R5   .        Matrix  Sandstone (2.65 g/cc) from TD to 7264' :Remark Line 5
R6   .                     Limestone (2.71 g/cc) from 7264' to Surface :Remark Line 6
R7   .                                   :Remark Line 7
R8   .        EDTC run for telemetry and not used for gamma ray :Remark Line 8
TCS  .        3 00                       :Time Circulation Stopped
TLAB .        11 40                      :Time Logger At Bottom
NMT  .        NOBARITE                   :HILT Nuclear Mud Type
EPD  .F         5276.000000              :Elevation of Permanent Datum above Mean Sea Level
APD  .F          16.000000               :Elevation of Depth Reference (LMF) above Permanent Datum
#-----------------------------------------------------------------------------
~CURVE INFORMATION
#MNEM.UNIT   API CODE                                  DESCRIPTION
#---- -----  --------                                  -----------------------
DEPT .F                                                :DEPTH (BOREHOLE) {F10.1}
AT10 .OHMM                                             :Array Induction Two Foot Resistivity A10 {F11.4}
AT20 .OHMM                                             :Array Induction Two Foot Resistivity A20 {F11.4}
AT30 .OHMM                                             :Array Induction Two Foot Resistivity A30 {F11.4}
AT60 .OHMM                                             :Array Induction Two Foot Resistivity A60 {F11.4}
AT90 .OHMM                                             :Array Induction Two Foot Resistivity A90 {F11.4}
DPHZ .CFCF                                             :HRDD Standard Resolution Density Porosity {F11.4}
DT   .US/F                                             :Delta-T {F11.4}
HCAL .IN                                               :HRCC Caliper Calibrated {F13.4}
GR   .GAPI                                             :Gamma-Ray {F11.4}
HCAL .IN                                               :HRCC Caliper Calibrated {F11.4}
HDRA .G/C3                                             :HRDD Density Correction {F11.4}
NPOR .CFCF                                             :Enhanced Thermal Neutron Porosity {F11.4}
PEFZ .                                                 :HRDD Standard Resolution Formation Photoelectric Factor {F11.4}
RHOZ .G/C3                                             :HRDD Standard Resolution Formation Density {F11.4}
SP   .MV                                               :SP Shifted {F11.4}
SPHI .CFCF                                             :Sonic Porosity {F11.4}
#-----------------------------------------------------------------------------
# 
#     DEPT       AT10       AT20       AT30       AT60       AT90       DPHZ        DT         HCAL         GR        HCAL       HDRA       NPOR       PEFZ       RHOZ        SP        SPHI
#
~A  
# ...
    2752.5     2.2604     2.3046     2.3286     2.3779     2.3816     0.2468   111.4404       8.8632   106.0294     8.8632     0.1010     0.3279     2.9746     2.2880    -7.6875     0.3580
    2753.0     2.2682     2.3172     2.3398     2.3911     2.3932     0.2403   111.4997       8.7542   102.0365     8.7542     0.0991     0.3455     3.0104     2.2990    -7.5625     0.3582
    2753.5     2.2602     2.3082     2.3245     2.3671     2.3714     0.2360   111.9845       8.7324    97.9735     8.7324     0.1027     0.3451     3.0463     2.3065    -7.4375     0.3593
    2754.0     2.2516     2.2961     2.3070     2.3479     2.3497     0.2330   111.3867       8.7106    89.4156     8.7106     0.1178     0.3255     3.0902     2.3116    -7.4375     0.3579
    2754.5     2.2847     2.3375     2.3507     2.3930     2.3920     0.2377   111.2515       8.7542    91.0613     8.7542     0.1266     0.2747     3.1112     2.3036    -7.5625     0.3576
    2755.0     2.3605     2.4094     2.4138     2.4564     2.4506     0.2403   109.9652       8.6670   101.0490     8.6670     0.1249     0.3169     3.0890     2.2990    -7.6250     0.3545
    2755.5     2.4170     2.4593     2.4755     2.5230     2.5092     0.2403   109.0211       8.7760   106.3155     8.7760     0.1100     0.2944     3.0159     2.2991    -7.5625     0.3521
    2756.0     2.4777     2.5128     2.5305     2.5824     2.5654     0.2412   108.1583       8.7542   107.0187     8.7542     0.0935     0.3476     2.9332     2.2975    -7.3750     0.3499
    2756.5     2.5361     2.5604     2.5800     2.6360     2.6175     0.2396   107.2148       8.6234   108.6644     8.6234     0.0868     0.3489     2.9047     2.3003    -7.6875     0.3475
    2757.0     2.5842     2.6127     2.6392     2.6991     2.6770     0.2367   107.0146       8.4491   104.0563     8.4491     0.1068     0.2555     2.9464     2.3053    -7.6875     0.3470
    2757.5     2.5439     2.5739     2.6069     2.6651     2.6439     0.2493   107.8915       8.3401   108.8916     8.3401     0.1558     0.2693     3.0047     2.2837    -8.0625     0.3493
    2758.0     2.4289     2.4593     2.4883     2.5488     2.5268     0.2886   106.6885       8.1875   107.2458     8.1875     0.2123     0.3142     2.9532     2.2164    -8.0625     0.3462
    2758.5     2.3525     2.3851     2.4103     2.4727     2.4536     0.3353   109.5017       8.3619   110.2341     8.3619     0.2500     0.2967     2.7615     2.1366    -7.9375     0.3533
    2759.0     2.3149     2.3489     2.3775     2.4341     2.4250     0.3536   110.6182       8.9503   104.6956     8.9503     0.2528     0.3214     2.5471     2.1053    -7.6250     0.3561
    2759.5     2.3090     2.3431     2.3747     2.4345     2.4285     0.3317   110.2724       8.7760   104.6395     8.7760     0.2460     0.3456     2.4673     2.1427    -7.6875     0.3552
    2760.0     2.3728     2.4131     2.4493     2.5134     2.5106     0.3008   110.0150       9.2991   108.5634     9.2991     0.2480     0.2577     2.5525     2.1957    -7.6875     0.3546
    2760.5     2.4728     2.5037     2.5376     2.6082     2.6075     0.2725   108.8336       9.0593   113.0347     9.0593     0.2837     0.2829     2.6555     2.2440    -7.6250     0.3516
    2761.0     2.4674     2.4856     2.5131     2.5805     2.5872     0.2745   108.8541       9.2773   117.6359     9.2773     0.3216     0.3019     2.6773     2.2407    -7.5625     0.3517
    2761.5     2.3871     2.4119     2.4458     2.5160     2.5303     0.2852   109.7471       9.1901   118.9525     9.1901     0.3556     0.3227     2.6165     2.2224    -7.7500     0.3539
    2762.0     2.3243     2.3507     2.3785     2.4411     2.4556     0.3021   112.0937       9.0157   119.7476     9.0157     0.3714     0.3348     2.5536     2.1933    -7.6875     0.3596
    2762.5     2.3179     2.3562     2.3825     2.4443     2.4619     0.3081   112.5844       9.1029   106.3155     9.1029     0.3662     0.3358     2.5441     2.1832    -7.7500     0.3608
    2763.0     2.4133     2.4655     2.4968     2.5600     2.5733     0.2839   110.1729       9.3862   104.2981     9.3862     0.3441     0.3651     2.5819     2.2245    -7.9375     0.3550
    2763.5     2.5682     2.6212     2.6536     2.7240     2.7456     0.2690   109.4920       9.1901   102.6524     9.1901     0.2967     0.2844     2.6606     2.2499    -8.0000     0.3533
    2764.0     2.6787     2.7393     2.7706     2.8432     2.8514     0.2492   107.9633       8.2529   109.2354     8.2529     0.2560     0.2934     2.7370     2.2838    -8.1250     0.3494
    2764.5     2.6746     2.7260     2.7560     2.8245     2.8278     0.2608   107.6894       8.7542   110.9236     8.7542     0.2070     0.3583     2.7897     2.2641    -8.0000     0.3487
    2765.0     2.6448     2.6956     2.7378     2.8062     2.8027     0.2548   107.7282       9.1029   108.8281     9.1029     0.1842     0.3340     2.8119     2.2743    -8.0000     0.3488
    2765.5     2.6500     2.6950     2.7375     2.8089     2.8110     0.2587   108.3995       8.9503   115.0819     8.9503     0.1822     0.3326     2.8108     2.2677    -8.1250     0.3506
    2766.0     2.6495     2.6869     2.7318     2.8036     2.8060     0.2665   108.3795       8.7324   115.7402     8.7324     0.2186     0.3024     2.7877     2.2543    -8.3750     0.3505
    2766.5     2.6364     2.6818     2.7269     2.7978     2.7986     0.2873   108.5528       8.8414   113.8859     8.8414     0.2562     0.2308     2.7270     2.2187    -8.4375     0.3509
    2767.0     2.6131     2.6607     2.7050     2.7750     2.7745     0.2906   108.2741       8.6234   107.7570     8.6234     0.2818     0.3445     2.6394     2.2131    -8.0625     0.3502
    2767.5     2.5872     2.6385     2.6836     2.7494     2.7476     0.2783   109.2066       8.6888   106.1112     8.6888     0.2985     0.3164     2.5908     2.2342    -7.9375     0.3526
    2768.0     2.5608     2.6193     2.6592     2.7241     2.7228     0.2728   111.5737       8.5580   104.1363     8.5580     0.3214     0.3150     2.6060     2.2435    -8.0000     0.3584
    2768.5     2.5136     2.5779     2.6159     2.6775     2.6745     0.2844   108.5249       8.1657   101.7074     8.1657     0.3516     0.3693     2.6087     2.2237    -7.7500     0.3509
    2769.0     2.4803     2.5362     2.5722     2.6297     2.6306     0.2997   109.5994       9.1247   100.7199     9.1247     0.3736     0.3952     2.5155     2.1976    -8.0000     0.3536
    2769.5     2.4485     2.4979     2.5417     2.5987     2.5954     0.3168   110.0224       9.3209   103.3162     9.3209     0.3735     0.3644     2.3770     2.1682    -8.0000     0.3546
    2770.0     2.4247     2.4747     2.5098     2.5628     2.5597     0.3372   109.8492       9.6042   105.9494     9.6042     0.3558     0.3369     2.2537     2.1334    -8.0000     0.3542
    2770.5     2.4123     2.4541     2.4979     2.5555     2.5518     0.3507   110.5702      10.0183   100.3539    10.0183     0.3443     0.3250     2.2111     2.1102    -7.9375     0.3559
    2771.0     2.3794     2.4165     2.4597     2.5125     2.5091     0.3509   110.9249       9.0375    96.7263     9.0375     0.3399     0.3519     2.1995     2.1099    -7.7500     0.3568
    2771.5     2.3221     2.3462     2.3905     2.4430     2.4406     0.3336   110.9801       9.1465    93.7640     9.1465     0.3409     0.3578     2.2272     2.1396    -7.9375     0.3569
    2772.0     2.2649     2.2992     2.3438     2.3974     2.3915     0.3222   111.6256       9.9311    89.4234     9.9311     0.3295     0.3722     2.2909     2.1590    -7.9375     0.3585
    2772.5     2.2106     2.2489     2.2833     2.3364     2.3356     0.3350   112.5170      10.0401    95.7210    10.0401     0.3051     0.3325     2.3898     2.1372    -7.9375     0.3606
    2773.0     2.1497     2.1888     2.2163     2.2588     2.2607     0.3375   112.4139       9.9093   100.9309     9.9093     0.3001     0.3092     2.4754     2.1328    -7.8750     0.3604
    2773.5     2.1476     2.1909     2.2185     2.2604     2.2593     0.3251   113.1151       9.7349   103.6257     9.7349     0.3101     0.3549     2.5355     2.1541    -7.7500     0.3620
