~VERSION INFORMATION
VERS.           2.0   :CWLS Log ASCII Standard - VERSION 2.0
WRAP.           NO    :One Line per depth step
PROD.  Schlumberger   :LAS Producer
PROG.  DLIS to ASCII 2.3                               :LAS Program name and version
CREA.        2012/03/06 09:37                          :LAS Creation date {YYYY/MM/DD hh:mm}
DLIS_CREA.  2012-Mar-04 13:45                          :DLIS Creation date and time {YYYY-MMM-DD hh:mm}
SOURCE.     BFN8-00160_Bear_Fornstrom_44-32_Main.DLIS  :DLIS File Name
FILE-ID.     AIT_SONIC_TLD_MCFL_029PUP                 :File Identification Number
#--------------------------------------------------
~WELL INFORMATION
#MNEM.UNIT      DATA             DESCRIPTION
#---- ------ --------------   -----------------------------
STRT .F      946.5           :START DEPTH     
STOP .F      7726.5          :STOP DEPTH     
STEP .F       0.5            :STEP     
NULL .          -999.25      :NULL VALUE
COMP .        Bear Oil & Gas, Inc.                     :COMPANY
WELL .        Fornstrom 44-32                          :WELL
FLD  .        Britty                                   :FIELD
LOC  .        Sec. 32, T16N, R60W                      :LOCATION
CNTY .        Laramie                                  :COUNTY
STAT .        Wyoming                                  :STATE
CTRY .                                                 :COUNTRY
API  .        49-021-20913-0000                        :API NUMBER
UWI  .                                                 :UNIQUE WELL ID
DATE .        04-Mar-2012                              :LOG DATE {DD-MMM-YYYY}
SRVC .        Schlumberger                             :SERVICE COMPANY
LATI .DEG                                              :LATITUDE
LONG .DEG                                              :LONGITUDE
GDAT .                                                 :GeoDetic Datum
SECT .        32                                       :Section
RANG .        60W                                      :Range
TOWN .        16N                                      :Township
#-----------------------------------------------------------------------------
~PARAMETER INFORMATION
#MNEM.UNIT    VALUE                      DESCRIPTION
#---- -----   --------------------       ------------------------
CN   .        Bear Oil & Gas  Inc.       :Company Name
WN   .        Fornstrom 44-32            :Well Name
FN   .        Britty                     :Field Name
FL   .        Sec. 32  T16N  R60W        :Field Location
FL1  .        SHL  760' FSL X 757' FEL SESE :Field Location Line 1
COUN .        Laramie                    :County or Rig Name
STAT .        Wyoming                    :State or Province
NATI .                                   :Nation
DATE .        4-Mar-2012                 :Date as Month-Day-Year
APIN .        49-021-20913-0000          :API Serial Number
SECT .        32                         :Section
TOWN .        16N                        :Township
RANG .        60W                        :Range
DMF  .        Kelly Bushing              :Drilling Measured From
LMF  .        Kelly Bushing              :Log Measured From
PDAT .        Ground Level               :Permanent Datum
ENGI .        Tim Hoffman                :Engineer's Name
WITN .        Terry Eittreim             :Witness's Name
LATI .                                   :Latitude
LONG .                                   :Longitude
LUL  .        Ft. Morgan  CO             :Logging Unit Location
LUN  .              2153                 :Logging Unit Number
RUN  .        1                          :Run Number
SON  .        BFN8-00160                 :Service Order Number
BHT  .DEGF     170.00000                 :Bottom Hole Temperature (used in calculations)
BS   .IN         7.87500                 :Bit Size
MDEN .G/C3       2.65000                 :Matrix Density
DFD  .LB/G       9.20000                 :Drilling Fluid Density
DFV  .S         68.00000                 :Drilling Fluid Viscosity
DFL  .C3         5.60000                 :Drilling Fluid Loss
RMFS .OHMM       1.84875                 :Resistivity of Mud Filtrate Sample
EKB  .F       5292.00000                 :Elevation of Kelly Bushing
EGL  .F       5276.00000                 :Elevation of Ground Level
BLI  .F       7696.00000                 :Bottom Log Interval
BSAL .                                   :Borehole Salinity
FLEV .F        300.00000                 :Fluid Level
MCST .DEGF      91.00000                 :Mud Cake Sample Temperature
MFST .DEGF      91.00000                 :Mud Filtrate Sample Temperature
MRT  .DEGF     170.00000                 :Maximum Recorded Temperature
MST  .DEGF      91.00000                 :Mud Sample Temperature
RMCS .OHMM       3.69750                 :Resistivity of Mud Cake Sample
RMS  .OHMM       2.46500                 :Resistivity of Mud Sample
RW   .OHMM       1.00000                 :Resistivity of Connate Water
TDD  .F       7700.00000                 :Total Depth - Driller
TDL  .F       7704.00000                 :Total Depth - Logger
TLI  .F       1044.00000                 :Top Log Interval
HIDE .        BHC Sonic                  :Header Identifier
MATR .        SAND                       :Rock Matrix for Neutron Porosity Corrections
FNUM .           1.00000                 :Form Factor Numerator
FEXP .           2.00000                 :Form Factor Exponent
DFT  .        Gel and Chemical           :Drilling Fluid Type
DFPH .           8.50000                 :Drilling Fluid PH
MCSS .        Calculated                 :Mud Cake Sample Source
MFSS .        Calculated                 :Mud Filtrate Sample Source
FD   .G/C3       1.00000                 :Fluid Density
MSS  .        Flowline                   :Mud Sample Source
OS1  .        PEX AIT                    :Other Services Line 1
OS2  .                                   :Other Services Line 2
OS3  .                                   :Other Services Line 3
OS4  .                                   :Other Services Line 4
OS5  .                                   :Other Services Line 5
R1   .        This is the first run in hole :Remark Line 1
R2   .                                   :Remark Line 2
R3   .        Toolstring run as per tool sketch :Remark Line 3
R4   .                                   :Remark Line 4
R5   .        Matrix  Sandstone (2.65 g/cc) from TD to 7264' :Remark Line 5
R6   .                     Limestone (2.71 g/cc) from 7264' to Surface :Remark Line 6
R7   .                                   :Remark Line 7
R8   .        EDTC run for telemetry and not used for gamma ray :Remark Line 8
TCS  .        3 00                       :Time Circulation Stopped
TLAB .        11 40                      :Time Logger At Bottom
NMT  .        NOBARITE                   :HILT Nuclear Mud Type
EPD  .F         5276.000000              :Elevation of Permanent Datum above Mean Sea Level
APD  .F          16.000000               :Elevation of Depth Reference (LMF) above Permanent Datum
#-----------------------------------------------------------------------------
~CURVE INFORMATION
#MNEM.UNIT   API CODE                                  DESCRIPTION
#---- -----  --------                                  -----------------------
DEPT .F                                                :DEPTH (BOREHOLE) {F10.1}
AT10 .OHMM                                             :Array Induction Two Foot Resistivity A10 {F11.4}
AT20 .OHMM                                             :Array Induction Two Foot Resistivity A20 {F11.4}
AT30 .OHMM                                             :Array Induction Two Foot Resistivity A30 {F11.4}
AT60 .OHMM                                             :Array Induction Two Foot Resistivity A60 {F11.4}
AT90 .OHMM                                             :Array Induction Two Foot Resistivity A90 {F11.4}
DPHZ .CFCF                                             :HRDD Standard Resolution Density Porosity {F11.4}
DT   .US/F                                             :Delta-T {F11.4}
HCAL .IN                                               :HRCC Caliper Calibrated {F13.4}
GR   .GAPI                                             :Gamma-Ray {F11.4}
HCAL .IN                                               :HRCC Caliper Calibrated {F11.4}
HDRA .G/C3                                             :HRDD Density Correction {F11.4}
NPOR .CFCF                                             :Enhanced Thermal Neutron Porosity {F11.4}
PEFZ .                                                 :HRDD Standard Resolution Formation Photoelectric Factor {F11.4}
RHOZ .G/C3                                             :HRDD Standard Resolution Formation Density {F11.4}
SP   .MV                                               :SP Shifted {F11.4}
SPHI .CFCF                                             :Sonic Porosity {F11.4}
#-----------------------------------------------------------------------------
# 
#     DEPT       AT10       AT20       AT30       AT60       AT90       DPHZ        DT         HCAL         GR        HCAL       HDRA       NPOR       PEFZ       RHOZ        SP        SPHI
#
~A  
# ...
    5891.5     2.2840     2.1587     2.0955     2.0258     1.9774     0.0911    94.8856       7.9042    98.6957     7.9042     0.1264     0.3145     3.2768     2.5542    -0.3750     0.3115
    5892.0     2.3061     2.1764     2.1100     2.0353     1.9853     0.0986    94.6172       7.8824    99.5182     7.8824     0.1168     0.2592     3.2946     2.5415    -0.6250     0.3106
    5892.5     2.3235     2.1913     2.1192     2.0465     1.9986     0.1125    94.8082       7.9914   107.2424     7.9914     0.1105     0.2560     3.3214     2.5176    -0.5000     0.3112
    5893.0     2.2935     2.1667     2.0940     2.0263     1.9838     0.1221    95.5079       7.8606   108.6132     7.8606     0.1144     0.2667     3.3262     2.5013    -0.3125     0.3135
    5893.5     2.2720     2.1563     2.0925     2.0239     1.9756     0.1255    95.3190       8.2529   110.5323     8.2529     0.1201     0.2623     3.2684     2.4953    -0.1875     0.3129
    5894.0     2.3303     2.1992     2.1358     2.0590     2.0099     0.1247    95.5209       8.1222   109.6258     8.1222     0.1201     0.2493     3.2042     2.4967    -0.3125     0.3135
    5894.5     2.3709     2.2356     2.1622     2.0882     2.0370     0.1131    94.1072       8.0786   109.8999     8.0786     0.1264     0.2099     3.1951     2.5167    -0.1250     0.3089
    5895.0     2.3755     2.2384     2.1689     2.0959     2.0444     0.1052    94.5624       8.1657   115.1089     8.1657     0.1397     0.2285     3.2391     2.5301     0.1875     0.3104
    5895.5     2.3802     2.2383     2.1676     2.0951     2.0418     0.0994    94.8111       7.9914   111.6836     7.9914     0.1592     0.2792     3.2827     2.5400     0.0000     0.3112
    5896.0     2.3592     2.2179     2.1503     2.0808     2.0283     0.1042    95.1505       8.3619   116.8031     8.3619     0.1628     0.2746     3.2874     2.5318     0.2500     0.3123
    5896.5     2.3144     2.1835     2.1171     2.0481     1.9965     0.1044    95.5448       8.2965   114.5173     8.2965     0.1533     0.2487     3.2570     2.5314     0.2500     0.3136
    5897.0     2.3101     2.1780     2.1128     2.0387     1.9901     0.1037    95.5655       8.0459   122.2215     8.0459     0.1356     0.3186     3.2109     2.5327     0.0000     0.3137
    5897.5     2.3758     2.2406     2.1689     2.0931     2.0374     0.0990    94.9528       7.9914   118.4728     7.9914     0.1256     0.2928     3.1813     2.5408    -0.3125     0.3117
    5898.0     2.4571     2.3141     2.2342     2.1411     2.0897     0.1019    94.2102       7.9260   121.3069     7.9260     0.1178     0.2620     3.1786     2.5358    -0.3750     0.3092
    5898.5     2.4862     2.3433     2.2630     2.1757     2.1112     0.0950    93.6153       7.9696   112.9935     7.9696     0.1194     0.2759     3.2025     2.5476    -0.0625     0.3072
    5899.0     2.4812     2.3414     2.2659     2.1959     2.1136     0.0979    93.6333       8.4491   113.2677     8.4491     0.1186     0.2859     3.2307     2.5426    -0.0625     0.3073
    5899.5     2.4960     2.3516     2.2759     2.2036     2.1369     0.0974    93.9227       7.9696   105.5913     7.9696     0.1258     0.2553     3.2570     2.5434    -0.1875     0.3083
    5900.0     2.4915     2.3584     2.2972     2.2272     2.1485     0.1085    94.0749       7.9478   108.5653     7.9478     0.1269     0.2377     3.2593     2.5245    -0.4375     0.3088
    5900.5     2.4730     2.3518     2.2996     2.2329     2.1721     0.1027    94.3771       8.0241   110.2102     8.0241     0.1309     0.2527     3.2443     2.5344    -0.6875     0.3098
    5901.0     2.4891     2.3505     2.2945     2.2293     2.1778     0.1052    94.6031       7.9914   111.0327     7.9914     0.1271     0.2405     3.2385     2.5301    -0.3125     0.3105
    5901.5     2.4744     2.3319     2.2895     2.2300     2.1963     0.1042    94.2098       8.1222   111.3527     8.1222     0.1286     0.2040     3.2503     2.5319    -0.3750     0.3092
    5902.0     2.4598     2.2658     2.2268     2.1671     2.1381     0.1089    93.6434       8.1440   112.4493     8.1440     0.1417     0.2659     3.2629     2.5238    -0.4375     0.3073
    5902.5     2.4403     2.2557     2.1886     2.1247     2.0969     0.1075    94.2037       8.0568   110.5302     8.0568     0.1586     0.3122     3.2437     2.5263    -0.3750     0.3092
    5903.0     2.4767     2.3496     2.2873     2.2276     2.1995     0.0941    92.8212       8.1004   112.9518     8.1004     0.1653     0.3078     3.2069     2.5491    -0.1875     0.3045
    5903.5     2.7295     2.6151     2.5390     2.4778     2.4617     0.0912    90.4785       8.2529   106.6462     8.2529     0.1357     0.2352     3.1595     2.5540     0.0000     0.2962
    5904.0     3.0458     2.9400     2.8296     2.7372     2.7015     0.0883    89.5334       8.1657   105.8651     8.1657     0.1049     0.2261     3.1329     2.5590     0.1875     0.2927
    5904.5     3.1526     3.0030     2.8949     2.7868     2.7299     0.0924    87.9304       8.0568   100.1079     8.0568     0.0891     0.2352     3.1151     2.5521     0.1875     0.2867
    5905.0     3.1078     2.9348     2.8342     2.7541     2.6841     0.0909    87.3594       8.0350   104.7685     8.0350     0.0921     0.2359     3.1039     2.5546     0.1875     0.2845
    5905.5     3.1212     2.9237     2.8396     2.7512     2.7081     0.0905    87.8019       8.0132   106.0979     8.0132     0.0836     0.2112     3.0716     2.5552     0.0625     0.2862
    5906.0     3.2149     3.0034     2.9210     2.8270     2.7751     0.0905    87.7563       8.0132   103.3563     8.0132     0.0665     0.2240     3.0402     2.5552     0.3125     0.2860
    5906.5     3.2909     3.0654     2.9846     2.8901     2.8441     0.0902    87.4301       8.0350    98.7375     8.0350     0.0516     0.2131     3.0198     2.5557     0.2500     0.2847
    5907.0     3.3353     3.1021     3.0253     2.9362     2.8930     0.0860    87.0686       8.0786   100.3824     8.0786     0.0515     0.2065     3.0323     2.5629     0.1875     0.2833
    5907.5     3.4165     3.1822     3.1068     3.0036     2.9677     0.0861    86.3460       8.0786   105.8655     8.0786     0.0583     0.1948     3.0814     2.5627    -0.3125     0.2805
    5908.0     3.5369     3.3055     3.2271     3.1134     3.0669     0.0893    86.1288       8.1657   101.7114     8.1657     0.0621     0.2134     3.1472     2.5573    -0.4375     0.2796
    5908.5     3.5588     3.3251     3.2321     3.1167     3.0786     0.0864    86.1732       8.0568    92.9384     8.0568     0.0714     0.2131     3.2060     2.5623    -0.3750     0.2798
    5909.0     3.4515     3.2404     3.1494     3.0465     3.0045     0.0864    85.8118       8.0568    88.5520     8.0568     0.0737     0.2260     3.2129     2.5623    -0.1875     0.2783
    5909.5     3.3823     3.2060     3.1290     3.0258     2.9880     0.0950    86.9414       8.1222    89.1376     8.1222     0.0696     0.2106     3.1648     2.5476    -0.1250     0.2828
    5910.0     3.4461     3.2635     3.1774     3.0673     3.0315     0.0976    86.2789       8.1440    91.8791     8.1440     0.0593     0.2172     3.0944     2.5431    -0.1875     0.2802
    5910.5     3.5438     3.3426     3.2456     3.1336     3.0992     0.0906    85.8815       8.1657    89.9600     8.1657     0.0467     0.2088     3.0261     2.5550    -0.3750     0.2786
    5911.0     3.6426     3.4217     3.3288     3.2083     3.1796     0.0829    85.3154       8.1657    94.0351     8.1657     0.0351     0.1992     2.9648     2.5683    -0.3125     0.2763
    5911.5     3.6930     3.4633     3.3723     3.2476     3.2226     0.0898    84.9619       8.1440    92.1160     8.1440     0.0216     0.2036     2.9168     2.5565    -0.5000     0.2748
    5912.0     3.7393     3.4960     3.4130     3.2846     3.2648     0.1037    85.0652       8.1440    97.6432     8.1440     0.0116     0.2123     2.8839     2.5327    -0.5000     0.2753
    5912.5     3.7906     3.5277     3.4444     3.3136     3.2986     0.1075    85.1385       8.1440    97.6432     8.1440     0.0094     0.2321     2.8912     2.5262    -0.3750     0.2756
