~VERSION INFORMATION
VERS.           2.0   :CWLS Log ASCII Standard - VERSION 2.0
WRAP.           NO    :One Line per depth step
PROD.  Schlumberger   :LAS Producer
PROG.  DLIS to ASCII 2.3                               :LAS Program name and version
CREA.        2012/03/06 09:37                          :LAS Creation date {YYYY/MM/DD hh:mm}
DLIS_CREA.  2012-Mar-04 13:45                          :DLIS Creation date and time {YYYY-MMM-DD hh:mm}
SOURCE.     BFN8-00160_Bear_Fornstrom_44-32_Main.DLIS  :DLIS File Name
FILE-ID.     AIT_SONIC_TLD_MCFL_029PUP                 :File Identification Number
#--------------------------------------------------
~WELL INFORMATION
#MNEM.UNIT      DATA             DESCRIPTION
#---- ------ --------------   -----------------------------
STRT .F      946.5           :START DEPTH     
STOP .F      7726.5          :STOP DEPTH     
STEP .F       0.5            :STEP     
NULL .          -999.25      :NULL VALUE
COMP .        Bear Oil & Gas, Inc.                     :COMPANY
WELL .        Fornstrom 44-32                          :WELL
FLD  .        Britty                                   :FIELD
LOC  .        Sec. 32, T16N, R60W                      :LOCATION
CNTY .        Laramie                                  :COUNTY
STAT .        Wyoming                                  :STATE
CTRY .                                                 :COUNTRY
API  .        49-021-20913-0000                        :API NUMBER
UWI  .                                                 :UNIQUE WELL ID
DATE .        04-Mar-2012                              :LOG DATE {DD-MMM-YYYY}
SRVC .        Schlumberger                             :SERVICE COMPANY
LATI .DEG                                              :LATITUDE
LONG .DEG                                              :LONGITUDE
GDAT .                                                 :GeoDetic Datum
SECT .        32                                       :Section
RANG .        60W                                      :Range
TOWN .        16N                                      :Township
#-----------------------------------------------------------------------------
~PARAMETER INFORMATION
#MNEM.UNIT    VALUE                      DESCRIPTION
#---- -----   --------------------       ------------------------
CN   .        Bear Oil & Gas  Inc.       :Company Name
WN   .        Fornstrom 44-32            :Well Name
FN   .        Britty                     :Field Name
FL   .        Sec. 32  T16N  R60W        :Field Location
FL1  .        SHL  760' FSL X 757' FEL SESE :Field Location Line 1
COUN .        Laramie                    :County or Rig Name
STAT .        Wyoming                    :State or Province
NATI .                                   :Nation
DATE .        4-Mar-2012                 :Date as Month-Day-Year
APIN .        49-021-20913-0000          :API Serial Number
SECT .        32                         :Section
TOWN .        16N                        :Township
RANG .        60W                        :Range
DMF  .        Kelly Bushing              :Drilling Measured From
LMF  .        Kelly Bushing              :Log Measured From
PDAT .        Ground Level               :Permanent Datum
ENGI .        Tim Hoffman                :Engineer's Name
WITN .        Terry Eittreim             :Witness's Name
LATI .                                   :Latitude
LONG .                                   :Longitude
LUL  .        Ft. Morgan  CO             :Logging Unit Location
LUN  .              2153                 :Logging Unit Number
RUN  .        1                          :Run Number
SON  .        BFN8-00160                 :Service Order Number
BHT  .DEGF     170.00000                 :Bottom Hole Temperature (used in calculations)
BS   .IN         7.87500                 :Bit Size
MDEN .G/C3       2.65000                 :Matrix Density
DFD  .LB/G       9.20000                 :Drilling Fluid Density
DFV  .S         68.00000                 :Drilling Fluid Viscosity
DFL  .C3         5.60000                 :Drilling Fluid Loss
RMFS .OHMM       1.84875                 :Resistivity of Mud Filtrate Sample
EKB  .F       5292.00000                 :Elevation of Kelly Bushing
EGL  .F       5276.00000                 :Elevation of Ground Level
BLI  .F       7696.00000                 :Bottom Log Interval
BSAL .                                   :Borehole Salinity
FLEV .F        300.00000                 :Fluid Level
MCST .DEGF      91.00000                 :Mud Cake Sample Temperature
MFST .DEGF      91.00000                 :Mud Filtrate Sample Temperature
MRT  .DEGF     170.00000                 :Maximum Recorded Temperature
MST  .DEGF      91.00000                 :Mud Sample Temperature
RMCS .OHMM       3.69750                 :Resistivity of Mud Cake Sample
RMS  .OHMM       2.46500                 :Resistivity of Mud Sample
RW   .OHMM       1.00000                 :Resistivity of Connate Water
TDD  .F       7700.00000                 :Total Depth - Driller
TDL  .F       7704.00000                 :Total Depth - Logger
TLI  .F       1044.00000                 :Top Log Interval
HIDE .        BHC Sonic                  :Header Identifier
MATR .        SAND                       :Rock Matrix for Neutron Porosity Corrections
FNUM .           1.00000                 :Form Factor Numerator
FEXP .           2.00000                 :Form Factor Exponent
DFT  .        Gel and Chemical           :Drilling Fluid Type
DFPH .           8.50000                 :Drilling Fluid PH
MCSS .        Calculated                 :Mud Cake Sample Source
MFSS .        Calculated                 :Mud Filtrate Sample Source
FD   .G/C3       1.00000                 :Fluid Density
MSS  .        Flowline                   :Mud Sample Source
OS1  .        PEX AIT                    :Other Services Line 1
OS2  .                                   :Other Services Line 2
OS3  .                                   :Other Services Line 3
OS4  .                                   :Other Services Line 4
OS5  .                                   :Other Services Line 5
R1   .        This is the first run in hole :Remark Line 1
R2   .                                   :Remark Line 2
R3   .        Toolstring run as per tool sketch :Remark Line 3
R4   .                                   :Remark Line 4
R5   .        Matrix  Sandstone (2.65 g/cc) from TD to 7264' :Remark Line 5
R6   .                     Limestone (2.71 g/cc) from 7264' to Surface :Remark Line 6
R7   .                                   :Remark Line 7
R8   .        EDTC run for telemetry and not used for gamma ray :Remark Line 8
TCS  .        3 00                       :Time Circulation Stopped
TLAB .        11 40                      :Time Logger At Bottom
NMT  .        NOBARITE                   :HILT Nuclear Mud Type
EPD  .F         5276.000000              :Elevation of Permanent Datum above Mean Sea Level
APD  .F          16.000000               :Elevation of Depth Reference (LMF) above Permanent Datum
#-----------------------------------------------------------------------------
~CURVE INFORMATION
#MNEM.UNIT   API CODE                                  DESCRIPTION
#---- -----  --------                                  -----------------------
DEPT .F                                                :DEPTH (BOREHOLE) {F10.1}
AT10 .OHMM                                             :Array Induction Two Foot Resistivity A10 {F11.4}
AT20 .OHMM                                             :Array Induction Two Foot Resistivity A20 {F11.4}
AT30 .OHMM                                             :Array Induction Two Foot Resistivity A30 {F11.4}
AT60 .OHMM                                             :Array Induction Two Foot Resistivity A60 {F11.4}
AT90 .OHMM                                             :Array Induction Two Foot Resistivity A90 {F11.4}
DPHZ .CFCF                                             :HRDD Standard Resolution Density Porosity {F11.4}
DT   .US/F                                             :Delta-T {F11.4}
HCAL .IN                                               :HRCC Caliper Calibrated {F13.4}
GR   .GAPI                                             :Gamma-Ray {F11.4}
HCAL .IN                                               :HRCC Caliper Calibrated {F11.4}
HDRA .G/C3                                             :HRDD Density Correction {F11.4}
NPOR .CFCF                                             :Enhanced Thermal Neutron Porosity {F11.4}
PEFZ .                                                 :HRDD Standard Resolution Formation Photoelectric Factor {F11.4}
RHOZ .G/C3                                             :HRDD Standard Resolution Formation Density {F11.4}
SP   .MV                                               :SP Shifted {F11.4}
SPHI .CFCF                                             :Sonic Porosity {F11.4}
#-----------------------------------------------------------------------------
# 
#     DEPT       AT10       AT20       AT30       AT60       AT90       DPHZ        DT         HCAL         GR        HCAL       HDRA       NPOR       PEFZ       RHOZ        SP        SPHI
#
~A  
# ...
    4988.5     2.7167     2.5700     2.5327     2.4781     2.4172     0.1010    95.5229       8.1222   143.0211     8.1222     0.0211     0.2621     3.2509     2.5372    -2.6875     0.3136
    4989.0     2.8008     2.6401     2.6053     2.5472     2.4936     0.1123    96.5273       8.1440   141.2422     8.1440     0.0058     0.2429     3.1370     2.5180    -2.8750     0.3168
    4989.5     2.8168     2.6129     2.5699     2.5138     2.4629     0.1117    94.9586       8.1657   137.1299     8.1657     0.0057     0.2501     3.1628     2.5190    -2.8125     0.3117
    4990.0     2.6536     2.4853     2.4488     2.4020     2.3657     0.1233    95.9971       8.1657   132.1951     8.1657     0.0059     0.2627     3.2164     2.4992    -2.9375     0.3151
    4990.5     2.3563     2.2559     2.2254     2.1808     2.1592     0.1405    98.2626       8.2093   129.1271     8.2093     0.0118     0.2688     3.2490     2.4697    -2.8125     0.3222
    4991.0     2.0947     2.0184     1.9813     1.9454     1.9331     0.1484    98.4657       8.2638   125.6927     8.2638     0.0340     0.3032     3.2868     2.4562    -2.4375     0.3229
    4991.5     1.9973     1.9529     1.9217     1.8873     1.8704     0.1457    99.4611       8.3619   121.0321     8.3619     0.0562     0.3068     3.3024     2.4608    -2.0000     0.3259
    4992.0     2.0901     2.0630     2.0283     1.9899     1.9740     0.1302    98.4027       8.2311   127.3377     8.2311     0.0693     0.2842     3.3140     2.4873    -2.0625     0.3227
    4992.5     2.2865     2.2355     2.1719     2.1289     2.1104     0.1142    95.7304       8.1657   130.8264     8.1657     0.0583     0.2794     3.2981     2.5146    -2.2500     0.3142
    4993.0     2.5133     2.4188     2.3608     2.3055     2.2799     0.1080    93.2384       8.1875   136.5837     8.1875     0.0345     0.2303     3.2448     2.5254    -2.4375     0.3059
    4993.5     2.6974     2.5631     2.5034     2.4484     2.4151     0.1153    91.3099       8.1875   132.7455     8.1875     0.0112     0.2165     3.2236     2.5128    -2.6875     0.2992
    4994.0     2.7450     2.5824     2.5275     2.4712     2.4323     0.1275    90.2470       8.1875   129.1270     8.1875    -0.0003     0.2153     3.2102     2.4919    -2.9375     0.2953
    4994.5     2.6437     2.4950     2.4513     2.4054     2.3652     0.1238    92.7100       8.2311   125.5302     8.2311     0.0199     0.2380     3.2638     2.4983    -2.8750     0.3041
    4995.0     2.4649     2.3601     2.3245     2.2808     2.2398     0.1238    94.2312       8.2311   122.7886     8.2311     0.0350     0.2598     3.2613     2.4983    -2.5625     0.3093
    4995.5     2.3682     2.2647     2.2337     2.2042     2.1705     0.1226    95.2453       8.1875   121.6920     8.1875     0.0394     0.3125     3.2596     2.5004    -2.4375     0.3126
    4996.0     2.4012     2.3213     2.2897     2.2581     2.2184     0.1296    95.0646       8.1875   116.2900     8.1875     0.0204     0.3360     3.2211     2.4884    -2.5000     0.3121
    4996.5     2.4879     2.4003     2.3561     2.3159     2.2819     0.1282    94.1729       8.2093   116.5642     8.2093     0.0085     0.2947     3.2202     2.4907    -2.8750     0.3091
    4997.0     2.4673     2.3748     2.3319     2.2935     2.2699     0.1266    94.1808       8.2093   119.5799     8.2093     0.0084     0.2436     3.2575     2.4936    -2.6875     0.3091
    4997.5     2.3938     2.3269     2.2952     2.2634     2.2393     0.1179    93.7889       8.2093   121.1766     8.2093     0.0127     0.2356     3.3080     2.5083    -2.8125     0.3078
    4998.0     2.4264     2.3332     2.2970     2.2585     2.2441     0.1155    93.7546       8.1875   124.0486     8.1875     0.0111     0.2488     3.3010     2.5125    -2.6875     0.3077
    4998.5     2.5310     2.4067     2.3550     2.3152     2.2985     0.1048    93.5898       8.2093   122.9520     8.2093     0.0094     0.2372     3.2435     2.5307    -2.6875     0.3071
    4999.0     2.5518     2.4285     2.3728     2.3323     2.3133     0.1136    92.9476       8.1657   127.3385     8.1657     0.0027     0.2558     3.1787     2.5157    -2.7500     0.3049
    4999.5     2.4572     2.3491     2.3050     2.2579     2.2473     0.1209    94.2229       8.1440   127.8090     8.1440     0.0066     0.2296     3.1506     2.5032    -2.7500     0.3093
    5000.0     2.3451     2.2233     2.1844     2.1468     2.1390     0.1244    96.1260       8.1657   126.1641     8.1657     0.0258     0.2394     3.1889     2.4973    -3.0625     0.3155
    5000.5     2.2312     2.1490     2.1125     2.0865     2.0724     0.1238    97.5265       8.1440   127.5348     8.1440     0.0461     0.3000     3.2507     2.4983    -2.6875     0.3200
    5001.0     2.2879     2.2048     2.1536     2.1164     2.1053     0.1212    97.5288       8.1657   128.8529     8.1657     0.0550     0.2919     3.3241     2.5027    -2.6875     0.3200
    5001.5     2.3859     2.3192     2.2593     2.2187     2.1925     0.1268    96.7798       8.1657   128.8529     8.1657     0.0478     0.3200     3.3699     2.4932    -2.8125     0.3176
    5002.0     2.4693     2.3843     2.3275     2.2865     2.2567     0.1210    95.1546       8.1657   121.3054     8.1657     0.0423     0.3032     3.3861     2.5031    -2.5000     0.3124
    5002.5     2.5347     2.4372     2.3861     2.3476     2.3196     0.1151    93.1354       8.2093   113.6291     8.2093     0.0379     0.2783     3.3748     2.5132    -2.5625     0.3056
    5003.0     2.7524     2.6253     2.5637     2.5093     2.4635     0.1093    91.5431       8.2311   115.2740     8.2311     0.0277     0.2717     3.3232     2.5231    -2.5625     0.3000
    5003.5     3.0343     2.8763     2.8195     2.7593     2.7197     0.1113    90.2790       8.1875   115.4676     8.1875     0.0145     0.2211     3.2689     2.5198    -2.8125     0.2955
    5004.0     3.1246     2.9156     2.8462     2.7829     2.7463     0.1191    89.6129       8.1875   122.6075     8.1875     0.0104     0.2181     3.2666     2.5063    -2.6875     0.2930
    5004.5     3.0094     2.8311     2.8001     2.7418     2.7204     0.1277    90.0845       8.1875   127.8493     8.1875     0.0044     0.2652     3.2946     2.4916    -2.5000     0.2948
    5005.0     2.9593     2.8011     2.7542     2.6977     2.6785     0.1380    90.8615       8.2311   129.6306     8.2311     0.0012     0.2533     3.3759     2.4740    -2.6875     0.2976
    5005.5     2.9377     2.8012     2.7530     2.6968     2.6768     0.1344    91.0792       8.2093   130.9895     8.2093    -0.0041     0.2341     3.3584     2.4801    -2.8750     0.2984
    5006.0     2.8965     2.7796     2.7371     2.6803     2.6636     0.1254    90.9839       8.2093   127.6668     8.2093    -0.0001     0.2536     3.3019     2.4955    -2.6875     0.2980
    5006.5     2.9464     2.8090     2.7595     2.7020     2.6810     0.1158    90.8300       8.2311   130.4978     8.2311     0.0037     0.2886     3.2153     2.5120    -2.8750     0.2975
    5007.0     3.0329     2.8908     2.8367     2.7731     2.7505     0.1064    90.8847       8.2311   127.2593     8.2311     0.0083     0.2457     3.2154     2.5281    -2.9375     0.2977
    5007.5     3.0376     2.8744     2.8115     2.7444     2.7235     0.1081    90.5975       8.2311   121.7762     8.2311     0.0059     0.2282     3.2552     2.5251    -3.1875     0.2966
    5008.0     2.9043     2.7663     2.7167     2.6536     2.6316     0.1103    90.8926       8.2093   121.5021     8.2093     0.0042     0.2381     3.2745     2.5215    -2.8750     0.2977
    5008.5     2.7763     2.6507     2.6114     2.5615     2.5433     0.1178    91.9117       8.2529   120.4838     8.2529     0.0048     0.2492     3.2708     2.5086    -2.8125     0.3013
    5009.0     2.6987     2.5814     2.5440     2.4934     2.4761     0.1165    92.5195       8.2311   125.4186     8.2311     0.0132     0.2217     3.2643     2.5108    -2.8750     0.3034
    5009.5     2.7383     2.6230     2.5894     2.5374     2.5181     0.1100    92.8521       8.2529   122.6770     8.2529     0.0225     0.2393     3.2456     2.5218    -2.5625     0.3046
