~VERSION INFORMATION
VERS.           2.0   :CWLS Log ASCII Standard - VERSION 2.0
WRAP.           NO    :One Line per depth step
PROD.  Schlumberger   :LAS Producer
PROG.  DLIS to ASCII 2.3                               :LAS Program name and version
CREA.        2012/03/06 09:37                          :LAS Creation date {YYYY/MM/DD hh:mm}
DLIS_CREA.  2012-Mar-04 13:45                          :DLIS Creation date and time {YYYY-MMM-DD hh:mm}
SOURCE.     BFN8-00160_Bear_Fornstrom_44-32_Main.DLIS  :DLIS File Name
FILE-ID.     AIT_SONIC_TLD_MCFL_029PUP                 :File Identification Number
#--------------------------------------------------
~WELL INFORMATION
#MNEM.UNIT      DATA             DESCRIPTION
#---- ------ --------------   -----------------------------
STRT .F      946.5           :START DEPTH     
STOP .F      7726.5          :STOP DEPTH     
STEP .F       0.5            :STEP     
NULL .          -999.25      :NULL VALUE
COMP .        Bear Oil & Gas, Inc.                     :COMPANY
WELL .        Fornstrom 44-32                          :WELL
FLD  .        Britty                                   :FIELD
LOC  .        Sec. 32, T16N, R60W                      :LOCATION
CNTY .        Laramie                                  :COUNTY
STAT .        Wyoming                                  :STATE
CTRY .                                                 :COUNTRY
API  .        49-021-20913-0000                        :API NUMBER
UWI  .                                                 :UNIQUE WELL ID
DATE .        04-Mar-2012                              :LOG DATE {DD-MMM-YYYY}
SRVC .        Schlumberger                             :SERVICE COMPANY
LATI .DEG                                              :LATITUDE
LONG .DEG                                              :LONGITUDE
GDAT .                                                 :GeoDetic Datum
SECT .        32                                       :Section
RANG .        60W                                      :Range
TOWN .        16N                                      :Township
#-----------------------------------------------------------------------------
~PARAMETER INFORMATION
#MNEM.UNIT    VALUE                      DESCRIPTION
#---- -----   --------------------       ------------------------
CN   .        Bear Oil & Gas  Inc.       :Company Name
WN   .        Fornstrom 44-32            :Well Name
FN   .        Britty                     :Field Name
FL   .        Sec. 32  T16N  R60W        :Field Location
FL1  .        SHL  760' FSL X 757' FEL SESE :Field Location Line 1
COUN .        Laramie                    :County or Rig Name
STAT .        Wyoming                    :State or Province
NATI .                                   :Nation
DATE .        4-Mar-2012                 :Date as Month-Day-Year
APIN .        49-021-20913-0000          :API Serial Number
SECT .        32                         :Section
TOWN .        16N                        :Township
RANG .        60W                        :Range
DMF  .        Kelly Bushing              :Drilling Measured From
LMF  .        Kelly Bushing              :Log Measured From
PDAT .        Ground Level               :Permanent Datum
ENGI .        Tim Hoffman                :Engineer's Name
WITN .        Terry Eittreim             :Witness's Name
LATI .                                   :Latitude
LONG .                                   :Longitude
LUL  .        Ft. Morgan  CO             :Logging Unit Location
LUN  .              2153                 :Logging Unit Number
RUN  .        1                          :Run Number
SON  .        BFN8-00160                 :Service Order Number
BHT  .DEGF     170.00000                 :Bottom Hole Temperature (used in calculations)
BS   .IN         7.87500                 :Bit Size
MDEN .G/C3       2.65000                 :Matrix Density
DFD  .LB/G       9.20000                 :Drilling Fluid Density
DFV  .S         68.00000                 :Drilling Fluid Viscosity
DFL  .C3         5.60000                 :Drilling Fluid Loss
RMFS .OHMM       1.84875                 :Resistivity of Mud Filtrate Sample
EKB  .F       5292.00000                 :Elevation of Kelly Bushing
EGL  .F       5276.00000                 :Elevation of Ground Level
BLI  .F       7696.00000                 :Bottom Log Interval
BSAL .                                   :Borehole Salinity
FLEV .F        300.00000                 :Fluid Level
MCST .DEGF      91.00000                 :Mud Cake Sample Temperature
MFST .DEGF      91.00000                 :Mud Filtrate Sample Temperature
MRT  .DEGF     170.00000                 :Maximum Recorded Temperature
MST  .DEGF      91.00000                 :Mud Sample Temperature
RMCS .OHMM       3.69750                 :Resistivity of Mud Cake Sample
RMS  .OHMM       2.46500                 :Resistivity of Mud Sample
RW   .OHMM       1.00000                 :Resistivity of Connate Water
TDD  .F       7700.00000                 :Total Depth - Driller
TDL  .F       7704.00000                 :Total Depth - Logger
TLI  .F       1044.00000                 :Top Log Interval
HIDE .        BHC Sonic                  :Header Identifier
MATR .        SAND                       :Rock Matrix for Neutron Porosity Corrections
FNUM .           1.00000                 :Form Factor Numerator
FEXP .           2.00000                 :Form Factor Exponent
DFT  .        Gel and Chemical           :Drilling Fluid Type
DFPH .           8.50000                 :Drilling Fluid PH
MCSS .        Calculated                 :Mud Cake Sample Source
MFSS .        Calculated                 :Mud Filtrate Sample Source
FD   .G/C3       1.00000                 :Fluid Density
MSS  .        Flowline                   :Mud Sample Source
OS1  .        PEX AIT                    :Other Services Line 1
OS2  .                                   :Other Services Line 2
OS3  .                                   :Other Services Line 3
OS4  .                                   :Other Services Line 4
OS5  .                                   :Other Services Line 5
R1   .        This is the first run in hole :Remark Line 1
R2   .                                   :Remark Line 2
R3   .        Toolstring run as per tool sketch :Remark Line 3
R4   .                                   :Remark Line 4
R5   .        Matrix  Sandstone (2.65 g/cc) from TD to 7264' :Remark Line 5
R6   .                     Limestone (2.71 g/cc) from 7264' to Surface :Remark Line 6
R7   .                                   :Remark Line 7
R8   .        EDTC run for telemetry and not used for gamma ray :Remark Line 8
TCS  .        3 00                       :Time Circulation Stopped
TLAB .        11 40                      :Time Logger At Bottom
NMT  .        NOBARITE                   :HILT Nuclear Mud Type
EPD  .F         5276.000000              :Elevation of Permanent Datum above Mean Sea Level
APD  .F          16.000000               :Elevation of Depth Reference (LMF) above Permanent Datum
#-----------------------------------------------------------------------------
~CURVE INFORMATION
#MNEM.UNIT   API CODE                                  DESCRIPTION
#---- -----  --------                                  -----------------------
DEPT .F                                                :DEPTH (BOREHOLE) {F10.1}
AT10 .OHMM                                             :Array Induction Two Foot Resistivity A10 {F11.4}
AT20 .OHMM                                             :Array Induction Two Foot Resistivity A20 {F11.4}
AT30 .OHMM                                             :Array Induction Two Foot Resistivity A30 {F11.4}
AT60 .OHMM                                             :Array Induction Two Foot Resistivity A60 {F11.4}
AT90 .OHMM                                             :Array Induction Two Foot Resistivity A90 {F11.4}
DPHZ .CFCF                                             :HRDD Standard Resolution Density Porosity {F11.4}
DT   .US/F                                             :Delta-T {F11.4}
HCAL .IN                                               :HRCC Caliper Calibrated {F13.4}
GR   .GAPI                                             :Gamma-Ray {F11.4}
HCAL .IN                                               :HRCC Caliper Calibrated {F11.4}
HDRA .G/C3                                             :HRDD Density Correction {F11.4}
NPOR .CFCF                                             :Enhanced Thermal Neutron Porosity {F11.4}
PEFZ .                                                 :HRDD Standard Resolution Formation Photoelectric Factor {F11.4}
RHOZ .G/C3                                             :HRDD Standard Resolution Formation Density {F11.4}
SP   .MV                                               :SP Shifted {F11.4}
SPHI .CFCF                                             :Sonic Porosity {F11.4}
#-----------------------------------------------------------------------------
# 
#     DEPT       AT10       AT20       AT30       AT60       AT90       DPHZ        DT         HCAL         GR        HCAL       HDRA       NPOR       PEFZ       RHOZ        SP        SPHI
#
~A  
# ...
    7246.0     1.3609     1.3245     1.2800     1.2643     1.2529     0.1721    95.4423       8.1331   200.5994     8.1331     0.1379     0.4002     2.9647     2.4157     4.0000     0.3133
    7246.5     1.7546     1.8411     1.8175     1.7708     1.7477     0.1775    98.7357       8.0495   183.1647     8.0495     0.0720     0.2837     3.0250     2.4064     4.0625     0.3237
    7247.0     3.1961     3.0935     2.9299     2.7850     2.7395     0.1730    92.9148       7.8497   144.6839     7.8497     0.0166     0.1705     3.2394     2.4141     4.3750     0.3048
    7247.5     4.3545     3.8780     3.4450     3.1389     3.0181     0.1503    87.8588       7.8606   122.3806     7.8606     0.0074     0.1769     3.4478     2.4530     4.6875     0.2864
    7248.0     3.8535     3.4677     3.2684     3.0584     2.9109     0.1509    91.6320       7.8715   129.8480     7.8715     0.0050     0.2154     3.5079     2.4520     4.8125     0.3003
    7248.5     3.7591     3.3093     3.1800     3.0444     2.9519     0.1597    94.2258       7.8752   134.7574     7.8752     0.0030     0.2252     3.5183     2.4369     5.0000     0.3093
    7249.0     4.0127     3.5231     3.4204     3.2703     3.1645     0.1678    95.4602       7.8824   141.3646     7.8824     0.0020     0.2360     3.4904     2.4230     4.8125     0.3134
    7249.5     4.0593     3.6153     3.5094     3.3853     3.2936     0.1670    95.2385       7.8715   136.3013     7.8715     0.0068     0.2504     3.4863     2.4245     4.7500     0.3126
    7250.0     3.9786     3.5573     3.5072     3.4174     3.3449     0.1601    94.5036       7.8606   133.5197     7.8606     0.0136     0.2422     3.4530     2.4362     4.8750     0.3102
    7250.5     3.9315     3.5746     3.4898     3.4055     3.3402     0.1598    96.0273       7.8824   126.6803     7.8824     0.0143     0.2236     3.4347     2.4368     5.1250     0.3152
    7251.0     3.7896     3.4991     3.3755     3.3249     3.2553     0.1690    97.7116       7.8824   130.5780     7.8824     0.0095     0.2644     3.3980     2.4210     5.1875     0.3205
    7251.5     3.5501     3.3310     3.1891     3.1526     3.1061     0.1772    98.1541       7.8933   140.2224     7.8933     0.0044     0.2949     3.3694     2.4070     5.3750     0.3219
    7252.0     3.6060     3.4295     3.2727     3.2189     3.1680     0.1738    99.5805       7.8824   147.0617     7.8824     0.0038     0.2981     3.3966     2.4127     5.0625     0.3262
    7252.5     3.8646     3.6794     3.4801     3.4110     3.3609     0.1618    95.8512       7.8933   140.2302     7.8933     0.0040     0.2816     3.4845     2.4333     4.8750     0.3146
    7253.0     4.1849     3.9586     3.7074     3.6085     3.5791     0.1513    93.6914       7.8752   127.9828     7.8752     0.0034     0.2371     3.5788     2.4513     4.6875     0.3075
    7253.5     4.6058     4.3337     4.0527     3.9242     3.8598     0.1506    93.5040       7.8715   120.6166     7.8715     0.0022     0.2238     3.6231     2.4525     4.8750     0.3068
    7254.0     4.6352     4.3167     4.0792     3.9293     3.8216     0.1551    93.6119       7.8606   122.9174     7.8606     0.0020     0.2551     3.5949     2.4448     4.7500     0.3072
    7254.5     4.6120     4.2647     4.0571     3.9617     3.9240     0.1579    95.1330       7.8824   122.3801     7.8824     0.0024     0.2560     3.5671     2.4399     4.8125     0.3123
    7255.0     4.7837     4.3985     4.1898     4.1055     4.0330     0.1546    94.8248       7.8606   121.9438     7.8606     0.0024     0.2675     3.5745     2.4456     4.7500     0.3113
    7255.5     5.1265     4.6743     4.4768     4.3301     4.3453     0.1455    92.3496       7.8497   114.2517     7.8497     0.0027     0.2617     3.6365     2.4612     4.6875     0.3029
    7256.0     5.2520     4.7744     4.5298     4.3380     4.3954     0.1423    90.0951       7.8388   108.8923     7.8388     0.0022     0.2224     3.7057     2.4667     4.6875     0.2948
    7256.5     4.9789     4.5509     4.2978     4.1119     4.1838     0.1365    91.2958       7.8497   100.6189     7.8497     0.0109     0.1959     3.7535     2.4766     4.5625     0.2991
    7257.0     4.5042     4.1982     3.9587     3.7315     3.8953     0.1426    92.4212       7.8715   107.6781     7.8715     0.0134     0.2378     3.6925     2.4662     4.8125     0.3031
    7257.5     4.0956     3.8482     3.6167     3.4942     3.5406     0.1469    93.4630       7.8606   119.2400     7.8606     0.0134     0.2805     3.5983     2.4588     5.0625     0.3067
    7258.0     4.1810     3.9948     3.7699     3.5400     3.5666     0.1535    94.8738       7.8933   127.8660     7.8933     0.0046     0.2676     3.5268     2.4475     4.8125     0.3114
    7258.5     4.5781     4.1736     3.9188     3.7625     3.6258     0.1499    93.0869       7.8715   126.5776     7.8715     0.0017     0.2490     3.5588     2.4536     4.8750     0.3054
    7259.0     5.3461     4.7710     4.3862     4.0557     3.9741     0.1440    91.1949       7.8606   114.0460     7.8606     0.0023     0.2168     3.6339     2.4637     4.7500     0.2988
    7259.5     5.7805     5.0861     4.6593     4.2396     3.9118     0.1416    91.4939       7.8606   109.7238     7.8606     0.0049     0.1902     3.6960     2.4679     4.8125     0.2998
    7260.0     4.9637     4.1173     3.9531     3.6737     3.3523     0.1501    93.1539       7.8715   116.5818     7.8715     0.0056     0.2087     3.6637     2.4533     4.8750     0.3056
    7260.5     4.0861     3.3044     3.2425     3.0080     2.7623     0.1645    95.7796       7.8606   126.1301     7.8606     0.0058     0.2281     3.5770     2.4287     5.2500     0.3144
    7261.0     3.5009     2.8636     2.7814     2.5635     2.3588     0.1776    98.4716       7.8824   131.8263     7.8824     0.0043     0.2794     3.4600     2.4064     5.1250     0.3229
    7261.5     3.1614     2.6049     2.4138     2.1726     2.0393     0.1721    94.1599       7.9042   135.4686     7.9042     0.0124     0.2787     3.4535     2.4157     4.8125     0.3090
    7262.0     2.4948     2.2206     2.0347     1.8617     1.7042     0.1677    94.9755       7.9115   152.2733     7.9115     0.0308     0.2114     3.3878     2.4233     5.0625     0.3118
    7262.5     1.3487     1.2786     1.1978     1.0943     1.0806     0.1685   101.6402       7.9805   195.3111     7.9805     0.0695     0.2281     3.2158     2.4219     5.1250     0.3323
    7263.0     0.7530     0.7438     0.7032     0.6733     0.6559     0.2149   103.6198       8.2093   234.8332     8.2093     0.0800     0.3543     2.8614     2.3425     5.9375     0.3379
    7263.5     0.5799     0.5822     0.5663     0.5456     0.5340     0.2627   109.7426       8.2965   268.4799     8.2965     0.0735     0.4225     2.5649     2.2607     6.3750     0.3539
    7264.0     0.5756     0.5862     0.5673     0.5512     0.5363     0.2758   109.8513       8.3074   269.0624     8.3074     0.0626     0.4353     2.4995     2.2384     5.8750     0.3542
    7264.5     0.7655     0.7558     0.7138     0.6893     0.6626     0.1976    99.8549       8.4636   245.0119     8.4636     0.0874     0.3675     2.6842     2.3240     5.7500     0.2745
    7265.0     1.3402     1.2503     1.1927     1.1470     1.0555     0.1312    94.3228       8.4818   200.4363     8.4818     0.1268     0.2622     2.9622     2.4335     7.2500     0.2539
    7265.5     2.3681     1.9557     1.7657     1.6370     1.4874     0.1081    90.0486       8.5254   158.9678     8.5254     0.1399     0.2701     3.0934     2.4716     7.5625     0.2363
    7266.0     2.5593     1.8871     1.7582     1.6504     1.5142     0.1146    93.8249       8.1657   142.6388     8.1657     0.1396     0.3026     3.0711     2.4609     7.9375     0.2520
    7266.5     2.3049     1.8572     1.7937     1.6810     1.5721     0.1255    98.6643       8.2747   138.9958     8.2747     0.1323     0.3240     2.9704     2.4430     7.9375     0.2703
    7267.0     2.2110     1.8853     1.8504     1.7539     1.6545     0.1301    99.7103       8.5072   140.1350     8.5072     0.1297     0.3486     2.9227     2.4353     8.0000     0.2740
