~VERSION INFORMATION
VERS.           2.0   :CWLS Log ASCII Standard - VERSION 2.0
WRAP.           NO    :One Line per depth step
PROD.  Schlumberger   :LAS Producer
PROG.  DLIS to ASCII 2.3                               :LAS Program name and version
CREA.        2012/03/06 09:37                          :LAS Creation date {YYYY/MM/DD hh:mm}
DLIS_CREA.  2012-Mar-04 13:45                          :DLIS Creation date and time {YYYY-MMM-DD hh:mm}
SOURCE.     BFN8-00160_Bear_Fornstrom_44-32_Main.DLIS  :DLIS File Name
FILE-ID.     AIT_SONIC_TLD_MCFL_029PUP                 :File Identification Number
#--------------------------------------------------
~WELL INFORMATION
#MNEM.UNIT      DATA             DESCRIPTION
#---- ------ --------------   -----------------------------
STRT .F      946.5           :START DEPTH     
STOP .F      7726.5          :STOP DEPTH     
STEP .F       0.5            :STEP     
NULL .          -999.25      :NULL VALUE
COMP .        Bear Oil & Gas, Inc.                     :COMPANY
WELL .        Fornstrom 44-32                          :WELL
FLD  .        Britty                                   :FIELD
LOC  .        Sec. 32, T16N, R60W                      :LOCATION
CNTY .        Laramie                                  :COUNTY
STAT .        Wyoming                                  :STATE
CTRY .                                                 :COUNTRY
API  .        49-021-20913-0000                        :API NUMBER
UWI  .                                                 :UNIQUE WELL ID
DATE .        04-Mar-2012                              :LOG DATE {DD-MMM-YYYY}
SRVC .        Schlumberger                             :SERVICE COMPANY
LATI .DEG                                              :LATITUDE
LONG .DEG                                              :LONGITUDE
GDAT .                                                 :GeoDetic Datum
SECT .        32                                       :Section
RANG .        60W                                      :Range
TOWN .        16N                                      :Township
#-----------------------------------------------------------------------------
~PARAMETER INFORMATION
#MNEM.UNIT    VALUE                      DESCRIPTION
#---- -----   --------------------       ------------------------
CN   .        Bear Oil & Gas  Inc.       :Company Name
WN   .        Fornstrom 44-32            :Well Name
FN   .        Britty                     :Field Name
FL   .        Sec. 32  T16N  R60W        :Field Location
FL1  .        SHL  760' FSL X 757' FEL SESE :Field Location Line 1
COUN .        Laramie                    :County or Rig Name
STAT .        Wyoming                    :State or Province
NATI .                                   :Nation
DATE .        4-Mar-2012                 :Date as Month-Day-Year
APIN .        49-021-20913-0000          :API Serial Number
SECT .        32                         :Section
TOWN .        16N                        :Township
RANG .        60W                        :Range
DMF  .        Kelly Bushing              :Drilling Measured From
LMF  .        Kelly Bushing              :Log Measured From
PDAT .        Ground Level               :Permanent Datum
ENGI .        Tim Hoffman                :Engineer's Name
WITN .        Terry Eittreim             :Witness's Name
LATI .                                   :Latitude
LONG .                                   :Longitude
LUL  .        Ft. Morgan  CO             :Logging Unit Location
LUN  .              2153                 :Logging Unit Number
RUN  .        1                          :Run Number
SON  .        BFN8-00160                 :Service Order Number
BHT  .DEGF     170.00000                 :Bottom Hole Temperature (used in calculations)
BS   .IN         7.87500                 :Bit Size
MDEN .G/C3       2.65000                 :Matrix Density
DFD  .LB/G       9.20000                 :Drilling Fluid Density
DFV  .S         68.00000                 :Drilling Fluid Viscosity
DFL  .C3         5.60000                 :Drilling Fluid Loss
RMFS .OHMM       1.84875                 :Resistivity of Mud Filtrate Sample
EKB  .F       5292.00000                 :Elevation of Kelly Bushing
EGL  .F       5276.00000                 :Elevation of Ground Level
BLI  .F       7696.00000                 :Bottom Log Interval
BSAL .                                   :Borehole Salinity
FLEV .F        300.00000                 :Fluid Level
MCST .DEGF      91.00000                 :Mud Cake Sample Temperature
MFST .DEGF      91.00000                 :Mud Filtrate Sample Temperature
MRT  .DEGF     170.00000                 :Maximum Recorded Temperature
MST  .DEGF      91.00000                 :Mud Sample Temperature
RMCS .OHMM       3.69750                 :Resistivity of Mud Cake Sample
RMS  .OHMM       2.46500                 :Resistivity of Mud Sample
RW   .OHMM       1.00000                 :Resistivity of Connate Water
TDD  .F       7700.00000                 :Total Depth - Driller
TDL  .F       7704.00000                 :Total Depth - Logger
TLI  .F       1044.00000                 :Top Log Interval
HIDE .        BHC Sonic                  :Header Identifier
MATR .        SAND                       :Rock Matrix for Neutron Porosity Corrections
FNUM .           1.00000                 :Form Factor Numerator
FEXP .           2.00000                 :Form Factor Exponent
DFT  .        Gel and Chemical           :Drilling Fluid Type
DFPH .           8.50000                 :Drilling Fluid PH
MCSS .        Calculated                 :Mud Cake Sample Source
MFSS .        Calculated                 :Mud Filtrate Sample Source
FD   .G/C3       1.00000                 :Fluid Density
MSS  .        Flowline                   :Mud Sample Source
OS1  .        PEX AIT                    :Other Services Line 1
OS2  .                                   :Other Services Line 2
OS3  .                                   :Other Services Line 3
OS4  .                                   :Other Services Line 4
OS5  .                                   :Other Services Line 5
R1   .        This is the first run in hole :Remark Line 1
R2   .                                   :Remark Line 2
R3   .        Toolstring run as per tool sketch :Remark Line 3
R4   .                                   :Remark Line 4
R5   .        Matrix  Sandstone (2.65 g/cc) from TD to 7264' :Remark Line 5
R6   .                     Limestone (2.71 g/cc) from 7264' to Surface :Remark Line 6
R7   .                                   :Remark Line 7
R8   .        EDTC run for telemetry and not used for gamma ray :Remark Line 8
TCS  .        3 00                       :Time Circulation Stopped
TLAB .        11 40                      :Time Logger At Bottom
NMT  .        NOBARITE                   :HILT Nuclear Mud Type
EPD  .F         5276.000000              :Elevation of Permanent Datum above Mean Sea Level
APD  .F          16.000000               :Elevation of Depth Reference (LMF) above Permanent Datum
#-----------------------------------------------------------------------------
~CURVE INFORMATION
#MNEM.UNIT   API CODE                                  DESCRIPTION
#---- -----  --------                                  -----------------------
DEPT .F                                                :DEPTH (BOREHOLE) {F10.1}
AT10 .OHMM                                             :Array Induction Two Foot Resistivity A10 {F11.4}
AT20 .OHMM                                             :Array Induction Two Foot Resistivity A20 {F11.4}
AT30 .OHMM                                             :Array Induction Two Foot Resistivity A30 {F11.4}
AT60 .OHMM                                             :Array Induction Two Foot Resistivity A60 {F11.4}
AT90 .OHMM                                             :Array Induction Two Foot Resistivity A90 {F11.4}
DPHZ .CFCF                                             :HRDD Standard Resolution Density Porosity {F11.4}
DT   .US/F                                             :Delta-T {F11.4}
HCAL .IN                                               :HRCC Caliper Calibrated {F13.4}
GR   .GAPI                                             :Gamma-Ray {F11.4}
HCAL .IN                                               :HRCC Caliper Calibrated {F11.4}
HDRA .G/C3                                             :HRDD Density Correction {F11.4}
NPOR .CFCF                                             :Enhanced Thermal Neutron Porosity {F11.4}
PEFZ .                                                 :HRDD Standard Resolution Formation Photoelectric Factor {F11.4}
RHOZ .G/C3                                             :HRDD Standard Resolution Formation Density {F11.4}
SP   .MV                                               :SP Shifted {F11.4}
SPHI .CFCF                                             :Sonic Porosity {F11.4}
#-----------------------------------------------------------------------------
# 
#     DEPT       AT10       AT20       AT30       AT60       AT90       DPHZ        DT         HCAL         GR        HCAL       HDRA       NPOR       PEFZ       RHOZ        SP        SPHI
#
~A  
# ...
    3204.0     3.0866     3.0055     3.0069     3.0052     3.0460     0.2059   101.2465       8.4273    97.0993     8.4273     0.0003     0.3036     2.7368     2.3578    -8.0000     0.3312
    3204.5     3.1060     3.0193     3.0324     3.0285     3.0659     0.2071   101.3939       8.4055   103.9653     8.4055     0.0005     0.2566     2.7378     2.3559    -9.1250     0.3316
    3205.0     3.1387     3.0471     3.0418     3.0438     3.0798     0.2112   101.2525       8.4273    99.0280     8.4273     0.0007     0.2583     2.7235     2.3488    -9.6875     0.3312
    3205.5     3.1714     3.0586     3.0646     3.0520     3.1005     0.2199   101.5450       8.4055   105.2819     8.4055    -0.0001     0.3055     2.7015     2.3340    -9.8125     0.3320
    3206.0     3.0817     2.9993     2.9863     2.9740     3.0247     0.2141   101.5132       8.4273   102.3657     8.4273     0.0082     0.2687     2.7066     2.3439    -9.8125     0.3319
    3206.5     2.8512     2.7754     2.7445     2.7342     2.7707     0.2183   103.1077       8.4491    98.4159     8.4491     0.0096     0.2416     2.7232     2.3368   -10.1875     0.3365
    3207.0     2.6863     2.5962     2.5616     2.5548     2.6022     0.2228   102.5674       8.4273   100.3371     8.4273     0.0112     0.2725     2.7873     2.3290   -10.8125     0.3349
    3207.5     2.8523     2.8203     2.8024     2.7914     2.8405     0.2327   102.1255       8.4055    96.0582     8.4055     0.0051     0.2982     2.7918     2.3122    -8.2500     0.3337
    3208.0     3.3461     3.2459     3.2065     3.1985     3.2842     0.2326   101.9736       8.4055   105.6035     8.4055     0.0035     0.2621     2.7999     2.3122   -11.7500     0.3333
    3208.5     3.6878     3.5307     3.4394     3.4171     3.4882     0.2343   100.2295       8.4273   105.6572     8.4273    -0.0001     0.2966     2.8035     2.3093    -9.6875     0.3282
    3209.0     3.6502     3.4985     3.4307     3.4022     3.4649     0.2337    99.5737       8.4055   112.8985     8.4055    -0.0028     0.2599     2.8241     2.3104   -11.1875     0.3262
    3209.5     3.6659     3.5104     3.4633     3.4476     3.5247     0.2299    98.9661       8.4055   113.5568     8.4055    -0.0046     0.2449     2.8442     2.3168   -10.5000     0.3244
    3210.0     3.8344     3.6350     3.5942     3.5719     3.6477     0.2174    95.7209       8.4055   112.6124     8.4055    -0.0047     0.2678     2.8333     2.3383   -10.0625     0.3142
    3210.5     4.1741     3.9039     3.8578     3.8464     3.9189     0.1969    92.5338       8.3619   106.6877     8.3619    -0.0026     0.2470     2.8405     2.3732    -9.8750     0.3035
    3211.0     4.6044     4.2751     4.2175     4.1733     4.2308     0.1772    90.6681       8.3183    96.4840     8.3183     0.0011     0.2103     2.8873     2.4070   -10.3750     0.2969
    3211.5     4.7306     4.3853     4.3290     4.2989     4.3582     0.1824    91.4857       8.2965    92.8203     8.2965     0.0022     0.2000     2.9463     2.3980   -11.5625     0.2998
    3212.0     4.3999     4.1154     4.0799     4.0360     4.0339     0.2083    93.7403       8.2311    90.7957     8.2311     0.0001     0.2276     2.9425     2.3538   -13.7500     0.3076
    3212.5     4.0467     3.8334     3.7960     3.7521     3.7663     0.2300    97.0485       8.1440    97.7079     8.1440     0.0019     0.2671     2.8220     2.3168   -13.7500     0.3185
    3213.0     3.8837     3.6536     3.6098     3.5623     3.5743     0.2386    99.9700       8.1222    99.3536     8.1222     0.0052     0.2840     2.7073     2.3020   -13.5625     0.3274
    3213.5     3.7784     3.5815     3.5305     3.4687     3.4703     0.2319   100.0335       8.0786    95.4535     8.0786     0.0120     0.2538     2.6640     2.3134   -13.5625     0.3276
    3214.0     3.7308     3.5112     3.4437     3.3616     3.3606     0.2302   100.5354       8.3183    95.0875     8.3183     0.0079     0.2459     2.6826     2.3163   -14.0000     0.3291
    3214.5     3.5197     3.3578     3.2990     3.2131     3.2085     0.2277   101.1724       8.3619    93.4417     8.3619     0.0028     0.2810     2.6778     2.3207   -13.1250     0.3309
    3215.0     3.3103     3.1213     3.0702     3.0055     2.9954     0.2318   102.1085       8.3183    95.7458     8.3183    -0.0022     0.3114     2.6634     2.3137   -11.5000     0.3336
    3215.5     3.1216     2.9897     2.9450     2.8789     2.8690     0.2349   102.5359       8.3619    96.4410     8.3619     0.0019     0.2984     2.6850     2.3084   -11.7500     0.3349
    3216.0     3.1041     3.0074     2.9619     2.8936     2.8761     0.2449   103.0479       8.3401    94.4661     8.3401     0.0051     0.2900     2.7251     2.2913   -11.3750     0.3363
    3216.5     3.1013     3.0010     2.9608     2.8842     2.8736     0.2408   103.0212       8.3183    93.1042     8.3183     0.0177     0.2555     2.7791     2.2983   -11.4375     0.3362
    3217.0     3.0615     2.9598     2.9199     2.8856     2.8458     0.2416   103.1269       8.3401    86.8503     8.3401     0.0221     0.2390     2.7810     2.2969   -11.6875     0.3365
    3217.5     3.0188     2.9201     2.8907     2.8552     2.8195     0.2331   103.4717       8.3401    86.8503     8.3401     0.0232     0.2404     2.7568     2.3113   -11.1250     0.3375
    3218.0     2.8745     2.7479     2.7555     2.7726     2.7051     0.2373   104.1840       8.3401    86.2373     8.3401     0.0111     0.3069     2.6888     2.3042   -10.0000     0.3394
    3218.5     2.6726     2.5550     2.5581     2.5549     2.5198     0.2418   105.0734       8.3619    91.5037     8.3619     0.0051     0.3241     2.6530     2.2965    -8.7500     0.3419
    3219.0     2.5150     2.4343     2.4170     2.3994     2.3990     0.2408   104.6153       8.3401    93.8545     8.3401     0.0173     0.3609     2.7014     2.2982    -8.5000     0.3406
    3219.5     2.4168     2.3312     2.3650     2.3570     2.3686     0.2437   105.3005       8.2965    99.7792     8.2965     0.0381     0.3549     2.8007     2.2934    -8.3750     0.3425
    3220.0     2.3235     2.2563     2.2436     2.2249     2.2606     0.2417   106.1871       8.2965   103.7290     8.2965     0.0600     0.2800     2.8978     2.2967    -8.3125     0.3448
    3220.5     2.2515     2.2512     2.2396     2.2222     2.2337     0.2396   105.1632       8.1440   112.2402     8.1440     0.0639     0.2813     2.9106     2.3004    -9.0625     0.3421
    3221.0     2.6038     2.5339     2.4855     2.4640     2.4887     0.2298   104.9094       8.0350   106.5998     8.0350     0.0553     0.3133     2.8755     2.3171   -10.0625     0.3414
    3221.5     2.9349     2.8634     2.7878     2.7531     2.7844     0.2209   104.6752       8.0786   100.0168     8.0786     0.0387     0.3045     2.8145     2.3323   -10.7500     0.3408
    3222.0     3.0700     2.9749     2.8849     2.8438     2.8574     0.2223   102.5859       8.1657    91.1298     8.1657     0.0216     0.3014     2.7494     2.3298   -10.5625     0.3350
    3222.5     3.0396     2.9330     2.8771     2.8443     2.8480     0.2216   102.8427       8.2093    92.8203     8.2093     0.0122     0.2763     2.7102     2.3311   -10.3750     0.3357
    3223.0     3.0295     2.9029     2.8526     2.8170     2.8036     0.2285   102.6405       8.2093    91.5037     8.2093     0.0052     0.2848     2.6894     2.3193   -10.1250     0.3352
    3223.5     3.0168     2.8641     2.8110     2.7921     2.7665     0.2329   102.9807       8.2311    93.1495     8.2311     0.0030     0.2647     2.7128     2.3117   -10.0625     0.3361
    3224.0     2.9286     2.8231     2.7828     2.7667     2.7184     0.2393   104.0610       8.2311    91.7876     8.2311     0.0010     0.3043     2.7104     2.3009   -10.0000     0.3391
    3224.5     2.8421     2.7441     2.6982     2.6844     2.6543     0.2307   104.1820       8.2093    97.7382     8.2093     0.0100     0.3185     2.7561     2.3155    -9.7500     0.3394
    3225.0     2.8453     2.7744     2.7276     2.7196     2.6862     0.2221   104.0167       8.1657    88.5220     8.1657     0.0114     0.3055     2.7784     2.3303   -10.6875     0.3390
