~VERSION INFORMATION
VERS.           2.0   :CWLS Log ASCII Standard - VERSION 2.0
WRAP.           NO    :One Line per depth step
PROD.  Schlumberger   :LAS Producer
PROG.  DLIS to ASCII 2.3                               :LAS Program name and version
CREA.        2012/03/06 09:37                          :LAS Creation date {YYYY/MM/DD hh:mm}
DLIS_CREA.  2012-Mar-04 13:45                          :DLIS Creation date and time {YYYY-MMM-DD hh:mm}
SOURCE.     BFN8-00160_Bear_Fornstrom_44-32_Main.DLIS  :DLIS File Name
FILE-ID.     AIT_SONIC_TLD_MCFL_029PUP                 :File Identification Number
#--------------------------------------------------
~WELL INFORMATION
#MNEM.UNIT      DATA             DESCRIPTION
#---- ------ --------------   -----------------------------
STRT .F      946.5           :START DEPTH     
STOP .F      7726.5          :STOP DEPTH     
STEP .F       0.5            :STEP     
NULL .          -999.25      :NULL VALUE
COMP .        Bear Oil & Gas, Inc.                     :COMPANY
WELL .        Fornstrom 44-32                          :WELL
FLD  .        Britty                                   :FIELD
LOC  .        Sec. 32, T16N, R60W                      :LOCATION
CNTY .        Laramie                                  :COUNTY
STAT .        Wyoming                                  :STATE
CTRY .                                                 :COUNTRY
API  .        49-021-20913-0000                        :API NUMBER
UWI  .                                                 :UNIQUE WELL ID
DATE .        04-Mar-2012                              :LOG DATE {DD-MMM-YYYY}
SRVC .        Schlumberger                             :SERVICE COMPANY
LATI .DEG                                              :LATITUDE
LONG .DEG                                              :LONGITUDE
GDAT .                                                 :GeoDetic Datum
SECT .        32                                       :Section
RANG .        60W                                      :Range
TOWN .        16N                                      :Township
#-----------------------------------------------------------------------------
~PARAMETER INFORMATION
#MNEM.UNIT    VALUE                      DESCRIPTION
#---- -----   --------------------       ------------------------
CN   .        Bear Oil & Gas  Inc.       :Company Name
WN   .        Fornstrom 44-32            :Well Name
FN   .        Britty                     :Field Name
FL   .        Sec. 32  T16N  R60W        :Field Location
FL1  .        SHL  760' FSL X 757' FEL SESE :Field Location Line 1
COUN .        Laramie                    :County or Rig Name
STAT .        Wyoming                    :State or Province
NATI .                                   :Nation
DATE .        4-Mar-2012                 :Date as Month-Day-Year
APIN .        49-021-20913-0000          :API Serial Number
SECT .        32                         :Section
TOWN .        16N                        :Township
RANG .        60W                        :Range
DMF  .        Kelly Bushing              :Drilling Measured From
LMF  .        Kelly Bushing              :Log Measured From
PDAT .        Ground Level               :Permanent Datum
ENGI .        Tim Hoffman                :Engineer's Name
WITN .        Terry Eittreim             :Witness's Name
LATI .                                   :Latitude
LONG .                                   :Longitude
LUL  .        Ft. Morgan  CO             :Logging Unit Location
LUN  .              2153                 :Logging Unit Number
RUN  .        1                          :Run Number
SON  .        BFN8-00160                 :Service Order Number
BHT  .DEGF     170.00000                 :Bottom Hole Temperature (used in calculations)
BS   .IN         7.87500                 :Bit Size
MDEN .G/C3       2.65000                 :Matrix Density
DFD  .LB/G       9.20000                 :Drilling Fluid Density
DFV  .S         68.00000                 :Drilling Fluid Viscosity
DFL  .C3         5.60000                 :Drilling Fluid Loss
RMFS .OHMM       1.84875                 :Resistivity of Mud Filtrate Sample
EKB  .F       5292.00000                 :Elevation of Kelly Bushing
EGL  .F       5276.00000                 :Elevation of Ground Level
BLI  .F       7696.00000                 :Bottom Log Interval
BSAL .                                   :Borehole Salinity
FLEV .F        300.00000                 :Fluid Level
MCST .DEGF      91.00000                 :Mud Cake Sample Temperature
MFST .DEGF      91.00000                 :Mud Filtrate Sample Temperature
MRT  .DEGF     170.00000                 :Maximum Recorded Temperature
MST  .DEGF      91.00000                 :Mud Sample Temperature
RMCS .OHMM       3.69750                 :Resistivity of Mud Cake Sample
RMS  .OHMM       2.46500                 :Resistivity of Mud Sample
RW   .OHMM       1.00000                 :Resistivity of Connate Water
TDD  .F       7700.00000                 :Total Depth - Driller
TDL  .F       7704.00000                 :Total Depth - Logger
TLI  .F       1044.00000                 :Top Log Interval
HIDE .        BHC Sonic                  :Header Identifier
MATR .        SAND                       :Rock Matrix for Neutron Porosity Corrections
FNUM .           1.00000                 :Form Factor Numerator
FEXP .           2.00000                 :Form Factor Exponent
DFT  .        Gel and Chemical           :Drilling Fluid Type
DFPH .           8.50000                 :Drilling Fluid PH
MCSS .        Calculated                 :Mud Cake Sample Source
MFSS .        Calculated                 :Mud Filtrate Sample Source
FD   .G/C3       1.00000                 :Fluid Density
MSS  .        Flowline                   :Mud Sample Source
OS1  .        PEX AIT                    :Other Services Line 1
OS2  .                                   :Other Services Line 2
OS3  .                                   :Other Services Line 3
OS4  .                                   :Other Services Line 4
OS5  .                                   :Other Services Line 5
R1   .        This is the first run in hole :Remark Line 1
R2   .                                   :Remark Line 2
R3   .        Toolstring run as per tool sketch :Remark Line 3
R4   .                                   :Remark Line 4
R5   .        Matrix  Sandstone (2.65 g/cc) from TD to 7264' :Remark Line 5
R6   .                     Limestone (2.71 g/cc) from 7264' to Surface :Remark Line 6
R7   .                                   :Remark Line 7
R8   .        EDTC run for telemetry and not used for gamma ray :Remark Line 8
TCS  .        3 00                       :Time Circulation Stopped
TLAB .        11 40                      :Time Logger At Bottom
NMT  .        NOBARITE                   :HILT Nuclear Mud Type
EPD  .F         5276.000000              :Elevation of Permanent Datum above Mean Sea Level
APD  .F          16.000000               :Elevation of Depth Reference (LMF) above Permanent Datum
#-----------------------------------------------------------------------------
~CURVE INFORMATION
#MNEM.UNIT   API CODE                                  DESCRIPTION
#---- -----  --------                                  -----------------------
DEPT .F                                                :DEPTH (BOREHOLE) {F10.1}
AT10 .OHMM                                             :Array Induction Two Foot Resistivity A10 {F11.4}
AT20 .OHMM                                             :Array Induction Two Foot Resistivity A20 {F11.4}
AT30 .OHMM                                             :Array Induction Two Foot Resistivity A30 {F11.4}
AT60 .OHMM                                             :Array Induction Two Foot Resistivity A60 {F11.4}
AT90 .OHMM                                             :Array Induction Two Foot Resistivity A90 {F11.4}
DPHZ .CFCF                                             :HRDD Standard Resolution Density Porosity {F11.4}
DT   .US/F                                             :Delta-T {F11.4}
HCAL .IN                                               :HRCC Caliper Calibrated {F13.4}
GR   .GAPI                                             :Gamma-Ray {F11.4}
HCAL .IN                                               :HRCC Caliper Calibrated {F11.4}
HDRA .G/C3                                             :HRDD Density Correction {F11.4}
NPOR .CFCF                                             :Enhanced Thermal Neutron Porosity {F11.4}
PEFZ .                                                 :HRDD Standard Resolution Formation Photoelectric Factor {F11.4}
RHOZ .G/C3                                             :HRDD Standard Resolution Formation Density {F11.4}
SP   .MV                                               :SP Shifted {F11.4}
SPHI .CFCF                                             :Sonic Porosity {F11.4}
#-----------------------------------------------------------------------------
# 
#     DEPT       AT10       AT20       AT30       AT60       AT90       DPHZ        DT         HCAL         GR        HCAL       HDRA       NPOR       PEFZ       RHOZ        SP        SPHI
#
~A  
# ...
    3655.5     2.2619     2.2479     2.2502     2.2587     2.2522     0.1692   102.8258       8.5471   109.1137     8.5471     0.0313     0.2720     2.9145     2.4206    -4.1250     0.3357
    3656.0     2.2541     2.2411     2.2434     2.2524     2.2455     0.1775   102.3980       8.5254   112.9954     8.5254     0.0232     0.2588     2.9177     2.4065    -4.3125     0.3345
    3656.5     2.2556     2.2453     2.2486     2.2605     2.2561     0.1897   102.0985       8.5363   105.5932     8.5363     0.0157     0.2798     2.9386     2.3856    -4.3125     0.3336
    3657.0     2.2547     2.2433     2.2462     2.2569     2.2539     0.1930   102.7001       8.4491    96.2719     8.4491     0.0117     0.2641     2.9557     2.3800    -4.2500     0.3353
    3657.5     2.2168     2.2061     2.2074     2.2175     2.2181     0.1868   102.9112       8.5363    93.7610     8.5363     0.0178     0.2322     2.9664     2.3905    -4.4375     0.3359
    3658.0     2.1829     2.1728     2.1731     2.1845     2.1840     0.1820   103.3636       8.5145    92.9386     8.5145     0.0257     0.2343     2.9343     2.3987    -4.3125     0.3372
    3658.5     2.1751     2.1667     2.1709     2.1772     2.1804     0.1752   103.8364       8.5363    93.2524     8.5363     0.0386     0.2771     2.9024     2.4105    -4.1250     0.3385
    3659.0     2.1863     2.1782     2.1848     2.1934     2.1962     0.1722   103.2000       8.4927    95.1715     8.4927     0.0461     0.2718     2.9034     2.4156    -4.2500     0.3367
    3659.5     2.2181     2.2059     2.2122     2.2146     2.2215     0.1686   102.9578       8.4927    97.3647     8.4927     0.0466     0.2727     2.9442     2.4217    -4.1250     0.3360
    3660.0     2.2520     2.2384     2.2424     2.2473     2.2522     0.1675   103.1737       8.5580   105.2755     8.5580     0.0449     0.3236     3.0001     2.4236    -4.1875     0.3367
    3660.5     2.2381     2.2255     2.2302     2.2356     2.2403     0.1682   102.8640       8.6234   101.1632     8.6234     0.0478     0.2973     3.0432     2.4224    -3.8125     0.3358
    3661.0     2.2153     2.1995     2.2062     2.2121     2.2177     0.1687   102.9758       8.7324   102.2598     8.7324     0.0509     0.3019     3.0649     2.4215    -3.8125     0.3361
    3661.5     2.1828     2.1709     2.1774     2.1820     2.1863     0.1772   103.7305       8.6888    95.1725     8.6888     0.0435     0.2787     3.0661     2.4069    -3.9375     0.3382
    3662.0     2.1455     2.1370     2.1425     2.1480     2.1526     0.1806   103.8041       8.6234    98.4624     8.6234     0.0300     0.2808     3.0581     2.4012    -3.8750     0.3384
    3662.5     2.1329     2.1235     2.1269     2.1321     2.1388     0.1852   104.6731       8.6888    96.5433     8.6888     0.0184     0.2856     3.0186     2.3932    -4.0000     0.3408
    3663.0     2.1277     2.1245     2.1288     2.1319     2.1343     0.1944   104.5884       8.7324    97.3250     8.7324     0.0072     0.2734     2.9873     2.3775    -3.9375     0.3406
    3663.5     2.1468     2.1351     2.1388     2.1410     2.1436     0.1961   104.2199       8.8850    99.5183     8.8850     0.0079     0.2638     2.9549     2.3747    -3.8750     0.3395
    3664.0     2.1633     2.1513     2.1527     2.1523     2.1548     0.1914   104.7253       8.5798   105.8697     8.5798     0.0143     0.3144     2.9637     2.3827    -3.8750     0.3409
    3664.5     2.1617     2.1477     2.1498     2.1509     2.1521     0.1859   104.3538       8.8196   104.4989     8.8196     0.0171     0.2861     2.9535     2.3922    -3.8750     0.3399
    3665.0     2.1367     2.1248     2.1290     2.1265     2.1280     0.1858   104.5654       8.6016    94.6294     8.6016     0.0147     0.2875     2.9408     2.3923    -3.8125     0.3405
    3665.5     2.1163     2.1064     2.1079     2.1077     2.1090     0.1906   104.5555       8.7978    89.6487     8.7978     0.0089     0.3152     2.8973     2.3841    -3.8125     0.3405
    3666.0     2.1039     2.0940     2.0972     2.0999     2.0997     0.1924   104.7307       8.9286    89.1004     8.9286     0.0067     0.2944     2.8614     2.3810    -3.8125     0.3409
    3666.5     2.0932     2.0868     2.0859     2.0902     2.0898     0.1973   105.0426       8.7324   100.6614     8.7324     0.0030     0.3178     2.8442     2.3727    -3.8125     0.3418
    3667.0     2.0809     2.0723     2.0768     2.0799     2.0792     0.1972   104.8859       8.7760   104.4996     8.7760     0.0025     0.2605     2.8679     2.3727    -3.8750     0.3414
    3667.5     2.0805     2.0718     2.0738     2.0795     2.0763     0.1952   105.5186       8.5363   105.3221     8.5363     0.0076     0.2823     2.9277     2.3763    -4.2500     0.3431
    3668.0     2.0926     2.0826     2.0836     2.0854     2.0849     0.1822   105.0975       8.6888    99.2441     8.6888     0.0232     0.3172     3.0106     2.3985    -4.3125     0.3419
    3668.5     2.1125     2.1034     2.1035     2.1083     2.1015     0.1721   104.7868       8.3619    95.1318     8.3619     0.0347     0.2933     3.0733     2.4157    -3.8750     0.3411
    3669.0     2.1220     2.1143     2.1163     2.1192     2.1127     0.1694   104.8803       8.5363    95.4059     8.5363     0.0357     0.2383     3.0738     2.4203    -4.0000     0.3413
    3669.5     2.0847     2.0745     2.0757     2.0805     2.0675     0.1811   104.7182       8.5363    99.2879     8.5363     0.0231     0.2655     3.0055     2.4003    -3.8125     0.3409
    3670.0     2.0515     2.0425     2.0472     2.0517     2.0380     0.1894   104.5916       8.5254    97.6430     8.5254     0.0134     0.2585     2.9487     2.3862    -3.7500     0.3406
    3670.5     2.0450     2.0356     2.0396     2.0426     2.0250     0.1934   105.2532       8.5363    95.1756     8.5363     0.0064     0.2944     2.8982     2.3793    -3.7500     0.3423
    3671.0     2.0260     2.0179     2.0173     2.0236     2.0071     0.1983   105.3696       8.5580    98.1475     8.5580     0.0041     0.3722     2.8990     2.3710    -3.5000     0.3427
    3671.5     1.9830     1.9746     1.9767     1.9837     1.9670     0.1994   105.4329       8.5907    98.1475     8.5907     0.0077     0.3102     2.9070     2.3690    -3.6250     0.3428
    3672.0     1.9495     1.9374     1.9374     1.9444     1.9261     0.1958   106.4846       8.6561   100.3811     8.6561     0.0150     0.2877     2.9130     2.3752    -3.2500     0.3456
    3672.5     1.9170     1.8962     1.8972     1.9040     1.8878     0.1900   106.5998       8.6016    94.0756     8.6016     0.0214     0.3066     2.8976     2.3851    -3.1875     0.3459
    3673.0     1.8741     1.8623     1.8579     1.8643     1.8475     0.1891   106.9868       8.5471    99.2845     8.5471     0.0219     0.3451     2.8598     2.3867    -3.1875     0.3469
    3673.5     1.8475     1.8439     1.8375     1.8487     1.8340     0.1960   107.3151       8.6779    98.1475     8.6779     0.0167     0.3209     2.8264     2.3749    -3.1250     0.3478
    3674.0     1.8217     1.8172     1.8107     1.8193     1.8040     0.2004   107.2120       8.5798   101.4374     8.5798     0.0118     0.2671     2.8103     2.3674    -3.2500     0.3475
    3674.5     1.8245     1.8286     1.8244     1.8363     1.8210     0.1977   106.5483       8.5798   100.9322     8.5798     0.0152     0.2803     2.8415     2.3719    -3.3125     0.3458
    3675.0     1.9233     1.9220     1.9136     1.9252     1.9096     0.1904   106.4624       8.6670   103.3996     8.6670     0.0257     0.2822     2.9011     2.3843    -3.5625     0.3456
    3675.5     2.0192     2.0126     2.0055     2.0207     2.0000     0.1794   105.7173       8.5798   102.3030     8.5798     0.0413     0.2970     2.9704     2.4032    -3.6250     0.3436
    3676.0     2.0579     2.0465     2.0415     2.0589     2.0379     0.1808   105.4260       8.7542    99.7924     8.7542     0.0441     0.2709     3.0074     2.4009    -3.5625     0.3428
    3676.5     2.0719     2.0567     2.0572     2.0777     2.0543     0.1757   106.0216       8.6670    98.4217     8.6670     0.0451     0.2663     3.0339     2.4095    -3.7500     0.3444
